$GPGGA,120000.000,4748.402,N,01357.111,E,1,12,1.0,0.0,M,0.0,M,,*65
$GPGSA,A,3,01,02,03,04,05,06,07,08,09,10,11,12,1.0,1.0,1.0*30
$GPRMC,120000.000,A,4748.402,N,01357.111,E,004.3,044.9,010121,000.0,W*7C
$GPGGA,120001.000,4748.403,N,01357.112,E,1,12,1.0,0.0,M,0.0,M,,*66
$GPGSA,A,3,01,02,03,04,05,06,07,08,09,10,11,12,1.0,1.0,1.0*30
$GPRMC,120001.000,A,4748.403,N,01357.112,E,004.8,090.0,010121,000.0,W*74
$GPGGA,120002.000,4748.403,N,01357.114,E,1,12,1.0,0.0,M,0.0,M,,*63
$GPGSA,A,3,01,02,03,04,05,06,07,08,09,10,11,12,1.0,1.0,1.0*30
$GPRMC,120002.000,A,4748.403,N,01357.114,E,006.0,243.3,010121,000.0,W*74
$GPGGA,120003.000,4748.402,N,01357.112,E,1,12,1.0,0.0,M,0.0,M,,*65
$GPGSA,A,3,01,02,03,04,05,06,07,08,09,10,11,12,1.0,1.0,1.0*30
$GPRMC,120003.000,A,4748.402,N,01357.112,E,023.7,146.4,010121,000.0,W*73
$GPGGA,120004.000,4748.396,N,01357.116,E,1,12,1.0,0.0,M,0.0,M,,*6C
$GPGSA,A,3,01,02,03,04,05,06,07,08,09,10,11,12,1.0,1.0,1.0*30
$GPRMC,120004.000,A,4748.396,N,01357.116,E,022.8,026.5,010121,000.0,W*72
$GPGGA,120005.000,4748.402,N,01357.119,E,1,12,1.0,0.0,M,0.0,M,,*68
$GPGSA,A,3,01,02,03,04,05,06,07,08,09,10,11,12,1.0,1.0,1.0*30
$GPRMC,120005.000,A,4748.402,N,01357.119,E,021.7,350.6,010121,000.0,W*7B
$GPGGA,120006.000,4748.408,N,01357.118,E,1,12,1.0,0.0,M,0.0,M,,*60
$GPGSA,A,3,01,02,03,04,05,06,07,08,09,10,11,12,1.0,1.0,1.0*30
$GPRMC,120006.000,A,4748.408,N,01357.118,E,021.7,350.6,010121,000.0,W*73
$GPGGA,120007.000,4748.414,N,01357.117,E,1,12,1.0,0.0,M,0.0,M,,*63
$GPGSA,A,3,01,02,03,04,05,06,07,08,09,10,11,12,1.0,1.0,1.0*30
$GPRMC,120007.000,A,4748.414,N,01357.117,E,023.7,326.4,010121,000.0,W*71
$GPGGA,120008.000,4748.420,N,01357.113,E,1,12,1.0,0.0,M,0.0,M,,*6F
$GPGSA,A,3,01,02,03,04,05,06,07,08,09,10,11,12,1.0,1.0,1.0*30
$GPRMC,120008.000,A,4748.420,N,01357.113,E,021.7,315.1,010121,000.0,W*7A
$GPGGA,120009.000,4748.425,N,01357.108,E,1,12,1.0,0.0,M,0.0,M,,*61
$GPGSA,A,3,01,02,03,04,05,06,07,08,09,10,11,12,1.0,1.0,1.0*30
$GPRMC,120009.000,A,4748.425,N,01357.108,E,024.1,296.6,010121,000.0,W*7A
$GPGGA,120010.000,4748.429,N,01357.100,E,1,12,1.0,0.0,M,0.0,M,,*6D
$GPGSA,A,3,01,02,03,04,05,06,07,08,09,10,11,12,1.0,1.0,1.0*30
$GPRMC,120010.000,A,4748.429,N,01357.100,E,022.2,290.6,010121,000.0,W*75
$GPGGA,120011.000,4748.432,N,01357.092,E,1,12,1.0,0.0,M,0.0,M,,*6C
$GPGSA,A,3,01,02,03,04,05,06,07,08,09,10,11,12,1.0,1.0,1.0*30
$GPRMC,120011.000,A,4748.432,N,01357.092,E,020.7,284.1,010121,000.0,W*71
$GPGGA,120012.000,4748.434,N,01357.084,E,1,12,1.0,0.0,M,0.0,M,,*6E
$GPGSA,A,3,01,02,03,04,05,06,07,08,09,10,11,12,1.0,1.0,1.0*30
$GPRMC,120012.000,A,4748.434,N,01357.084,E,029.7,339.5,010121,000.0,W*79
$GPGGA,120013.000,4748.442,N,01357.081,E,1,12,1.0,0.0,M,0.0,M,,*6B
$GPGSA,A,3,01,02,03,04,05,06,07,08,09,10,11,12,1.0,1.0,1.0*30
$GPRMC,120013.000,A,4748.442,N,01357.081,E,021.6,000.0,010121,000.0,W*79
$GPGGA,120014.000,4748.448,N,01357.081,E,1,12,1.0,0.0,M,0.0,M,,*66
$GPGSA,A,3,01,02,03,04,05,06,07,08,09,10,11,12,1.0,1.0,1.0*30
$GPRMC,120014.000,A,4748.448,N,01357.081,E,036.0,000.0,010121,000.0,W*74
$GPGGA,120015.000,4748.458,N,01357.081,E,1,12,1.0,0.0,M,0.0,M,,*66
$GPGSA,A,3,01,02,03,04,05,06,07,08,09,10,11,12,1.0,1.0,1.0*30
$GPRMC,120015.000,A,4748.458,N,01357.081,E,025.7,344.1,010121,000.0,W*73
$GPGGA,120016.000,4748.465,N,01357.079,E,1,12,1.0,0.0,M,0.0,M,,*6C
$GPGSA,A,3,01,02,03,04,05,06,07,08,09,10,11,12,1.0,1.0,1.0*30
$GPRMC,120016.000,A,4748.465,N,01357.079,E,025.2,000.0,010121,000.0,W*7E
$GPGGA,120017.000,4748.472,N,01357.079,E,1,12,1.0,0.0,M,0.0,M,,*6B
$GPGSA,A,3,01,02,03,04,05,06,07,08,09,10,11,12,1.0,1.0,1.0*30
$GPRMC,120017.000,A,4748.472,N,01357.079,E,025.3,351.9,010121,000.0,W*76
$GPGGA,120018.000,4748.479,N,01357.078,E,1,12,1.0,0.0,M,0.0,M,,*6E
$GPGSA,A,3,01,02,03,04,05,06,07,08,09,10,11,12,1.0,1.0,1.0*30
$GPRMC,120018.000,A,4748.479,N,01357.078,E,028.8,000.0,010121,000.0,W*7B
$GPGGA,120019.000,4748.487,N,01357.078,E,1,12,1.0,0.0,M,0.0,M,,*6E
$GPGSA,A,3,01,02,03,04,05,06,07,08,09,10,11,12,1.0,1.0,1.0*30
$GPRMC,120019.000,A,4748.487,N,01357.078,E,028.8,000.0,010121,000.0,W*7B
$GPGGA,120020.000,4748.495,N,01357.078,E,1,12,1.0,0.0,M,0.0,M,,*67
$GPGSA,A,3,01,02,03,04,05,06,07,08,09,10,11,12,1.0,1.0,1.0*30
$GPRMC,120020.000,A,4748.495,N,01357.078,E,028.8,000.0,010121,000.0,W*72
$GPGGA,120021.000,4748.503,N,01357.078,E,1,12,1.0,0.0,M,0.0,M,,*68
$GPGSA,A,3,01,02,03,04,05,06,07,08,09,10,11,12,1.0,1.0,1.0*30
$GPRMC,120021.000,A,4748.503,N,01357.078,E,032.4,000.0,010121,000.0,W*7A
$GPGGA,120022.000,4748.512,N,01357.078,E,1,12,1.0,0.0,M,0.0,M,,*6B
$GPGSA,A,3,01,02,03,04,05,06,07,08,09,10,11,12,1.0,1.0,1.0*30
$GPRMC,120022.000,A,4748.512,N,01357.078,E,032.4,000.0,010121,000.0,W*79
$GPGGA,120023.000,4748.521,N,01357.078,E,1,12,1.0,0.0,M,0.0,M,,*6A
$GPGSA,A,3,01,02,03,04,05,06,07,08,09,10,11,12,1.0,1.0,1.0*30
$GPRMC,120023.000,A,4748.521,N,01357.078,E,032.4,000.0,010121,000.0,W*78
$GPGGA,120024.000,4748.530,N,01357.078,E,1,12,1.0,0.0,M,0.0,M,,*6D
$GPGSA,A,3,01,02,03,04,05,06,07,08,09,10,11,12,1.0,1.0,1.0*30
$GPRMC,120024.000,A,4748.530,N,01357.078,E,032.5,006.3,010121,000.0,W*7B
$GPGGA,120025.000,4748.539,N,01357.079,E,1,12,1.0,0.0,M,0.0,M,,*64
$GPGSA,A,3,01,02,03,04,05,06,07,08,09,10,11,12,1.0,1.0,1.0*30
$GPRMC,120025.000,A,4748.539,N,01357.079,E,036.1,005.7,010121,000.0,W*75
$GPGGA,120026.000,4748.549,N,01357.080,E,1,12,1.0,0.0,M,0.0,M,,*66
$GPGSA,A,3,01,02,03,04,05,06,07,08,09,10,11,12,1.0,1.0,1.0*30
$GPRMC,120026.000,A,4748.549,N,01357.080,E,033.2,018.4,010121,000.0,W*7E
$GPGGA,120027.000,4748.558,N,01357.083,E,1,12,1.0,0.0,M,0.0,M,,*64
$GPGSA,A,3,01,02,03,04,05,06,07,08,09,10,11,12,1.0,1.0,1.0*30
$GPRMC,120027.000,A,4748.558,N,01357.083,E,030.4,026.5,010121,000.0,W*75
$GPGGA,120028.000,4748.566,N,01357.087,E,1,12,1.0,0.0,M,0.0,M,,*62
$GPGSA,A,3,01,02,03,04,05,06,07,08,09,10,11,12,1.0,1.0,1.0*30
$GPRMC,120028.000,A,4748.566,N,01357.087,E,032.8,012.5,010121,000.0,W*7A
$GPGGA,120029.000,4748.575,N,01357.089,E,1,12,1.0,0.0,M,0.0,M,,*6F
$GPGSA,A,3,01,02,03,04,05,06,07,08,09,10,11,12,1.0,1.0,1.0*30
$GPRMC,120029.000,A,4748.575,N,01357.089,E,034.6,029.0,010121,000.0,W*72
$GPGGA,120030.000,4748.584,N,01357.094,E,1,12,1.0,0.0,M,0.0,M,,*65
$GPGSA,A,3,01,02,03,04,05,06,07,08,09,10,11,12,1.0,1.0,1.0*30
$GPRMC,120030.000,A,4748.584,N,01357.094,E,033.2,018.4,010121,000.0,W*7D
$GPGGA,120031.000,4748.593,N,01357.097,E,1,12,1.0,0.0,M,0.0,M,,*61
$GPGSA,A,3,01,02,03,04,05,06,07,08,09,10,11,12,1.0,1.0,1.0*30
$GPRMC,120031.000,A,4748.593,N,01357.097,E,030.4,026.5,010121,000.0,W*70
$GPGGA,120032.000,4748.601,N,01357.101,E,1,12,1.0,0.0,M,0.0,M,,*64
$GPGSA,A,3,01,02,03,04,05,06,07,08,09,10,11,12,1.0,1.0,1.0*30
$GPRMC,120032.000,A,4748.601,N,01357.101,E,034.6,029.0,010121,000.0,W*79
$GPGGA,120033.000,4748.610,N,01357.106,E,1,12,1.0,0.0,M,0.0,M,,*62
$GPGSA,A,3,01,02,03,04,05,06,07,08,09,10,11,12,1.0,1.0,1.0*30
$GPRMC,120033.000,A,4748.610,N,01357.106,E,033.8,023.9,010121,000.0,W*75
$GPGGA,120034.000,4748.619,N,01357.110,E,1,12,1.0,0.0,M,0.0,M,,*6B
$GPGSA,A,3,01,02,03,04,05,06,07,08,09,10,11,12,1.0,1.0,1.0*30
$GPRMC,120034.000,A,4748.619,N,01357.110,E,034.6,029.0,010121,000.0,W*76
$GPGGA,120035.000,4748.628,N,01357.115,E,1,12,1.0,0.0,M,0.0,M,,*6D
$GPGSA,A,3,01,02,03,04,05,06,07,08,09,10,11,12,1.0,1.0,1.0*30
$GPRMC,120035.000,A,4748.628,N,01357.115,E,035.5,033.6,010121,000.0,W*7F
$GPGGA,120036.000,4748.637,N,01357.121,E,1,12,1.0,0.0,M,0.0,M,,*67
$GPGSA,A,3,01,02,03,04,05,06,07,08,09,10,11,12,1.0,1.0,1.0*30
$GPRMC,120036.000,A,4748.637,N,01357.121,E,034.6,029.0,010121,000.0,W*7A
$GPGGA,120037.000,4748.646,N,01357.126,E,1,12,1.0,0.0,M,0.0,M,,*67
$GPGSA,A,3,01,02,03,04,05,06,07,08,09,10,11,12,1.0,1.0,1.0*30
$GPRMC,120037.000,A,4748.646,N,01357.126,E,034.6,029.0,010121,000.0,W*7A
$GPGGA,120038.000,4748.655,N,01357.131,E,1,12,1.0,0.0,M,0.0,M,,*6C
$GPGSA,A,3,01,02,03,04,05,06,07,08,09,10,11,12,1.0,1.0,1.0*30
$GPRMC,120038.000,A,4748.655,N,01357.131,E,034.6,029.0,010121,000.0,W*71
$GPGGA,120039.000,4748.664,N,01357.136,E,1,12,1.0,0.0,M,0.0,M,,*68
$GPGSA,A,3,01,02,03,04,05,06,07,08,09,10,11,12,1.0,1.0,1.0*30
$GPRMC,120039.000,A,4748.664,N,01357.136,E,034.6,029.0,010121,000.0,W*75
$GPGGA,120040.000,4748.673,N,01357.141,E,1,12,1.0,0.0,M,0.0,M,,*60
$GPGSA,A,3,01,02,03,04,05,06,07,08,09,10,11,12,1.0,1.0,1.0*30
$GPRMC,120040.000,A,4748.673,N,01357.141,E,033.8,023.9,010121,000.0,W*77
$GPGGA,120041.000,4748.682,N,01357.145,E,1,12,1.0,0.0,M,0.0,M,,*6B
$GPGSA,A,3,01,02,03,04,05,06,07,08,09,10,11,12,1.0,1.0,1.0*30
$GPRMC,120041.000,A,4748.682,N,01357.145,E,033.8,023.9,010121,000.0,W*7C
$GPGGA,120042.000,4748.691,N,01357.149,E,1,12,1.0,0.0,M,0.0,M,,*66
$GPGSA,A,3,01,02,03,04,05,06,07,08,09,10,11,12,1.0,1.0,1.0*30
$GPRMC,120042.000,A,4748.691,N,01357.149,E,037.3,021.7,010121,000.0,W*72
$GPGGA,120043.000,4748.701,N,01357.153,E,1,12,1.0,0.0,M,0.0,M,,*64
$GPGSA,A,3,01,02,03,04,05,06,07,08,09,10,11,12,1.0,1.0,1.0*30
$GPRMC,120043.000,A,4748.701,N,01357.153,E,033.2,018.4,010121,000.0,W*7C
$GPGGA,120044.000,4748.710,N,01357.156,E,1,12,1.0,0.0,M,0.0,M,,*66
$GPGSA,A,3,01,02,03,04,05,06,07,08,09,10,11,12,1.0,1.0,1.0*30
$GPRMC,120044.000,A,4748.710,N,01357.156,E,033.8,023.9,010121,000.0,W*71
$GPGGA,120045.000,4748.719,N,01357.160,E,1,12,1.0,0.0,M,0.0,M,,*6B
$GPGSA,A,3,01,02,03,04,05,06,07,08,09,10,11,12,1.0,1.0,1.0*30
$GPRMC,120045.000,A,4748.719,N,01357.160,E,036.7,016.6,010121,000.0,W*7F
$GPGGA,120046.000,4748.729,N,01357.163,E,1,12,1.0,0.0,M,0.0,M,,*68
$GPGSA,A,3,01,02,03,04,05,06,07,08,09,10,11,12,1.0,1.0,1.0*30
$GPRMC,120046.000,A,4748.729,N,01357.163,E,032.5,006.3,010121,000.0,W*7E
$GPGGA,120047.000,4748.738,N,01357.164,E,1,12,1.0,0.0,M,0.0,M,,*6E
$GPGSA,A,3,01,02,03,04,05,06,07,08,09,10,11,12,1.0,1.0,1.0*30
$GPRMC,120047.000,A,4748.738,N,01357.164,E,036.3,011.3,010121,000.0,W*7C
$GPGGA,120048.000,4748.748,N,01357.166,E,1,12,1.0,0.0,M,0.0,M,,*64
$GPGSA,A,3,01,02,03,04,05,06,07,08,09,10,11,12,1.0,1.0,1.0*30
$GPRMC,120048.000,A,4748.748,N,01357.166,E,036.1,005.7,010121,000.0,W*75
$GPGGA,120049.000,4748.758,N,01357.167,E,1,12,1.0,0.0,M,0.0,M,,*65
$GPGSA,A,3,01,02,03,04,05,06,07,08,09,10,11,12,1.0,1.0,1.0*30
$GPRMC,120049.000,A,4748.758,N,01357.167,E,036.1,005.7,010121,000.0,W*74
$GPGGA,120050.000,4748.768,N,01357.168,E,1,12,1.0,0.0,M,0.0,M,,*61
$GPGSA,A,3,01,02,03,04,05,06,07,08,09,10,11,12,1.0,1.0,1.0*30
$GPRMC,120050.000,A,4748.768,N,01357.168,E,036.1,005.7,010121,000.0,W*70
$GPGGA,120051.000,4748.778,N,01357.169,E,1,12,1.0,0.0,M,0.0,M,,*60
$GPGSA,A,3,01,02,03,04,05,06,07,08,09,10,11,12,1.0,1.0,1.0*30
$GPRMC,120051.000,A,4748.778,N,01357.169,E,036.1,005.7,010121,000.0,W*71
$GPGGA,120052.000,4748.788,N,01357.170,E,1,12,1.0,0.0,M,0.0,M,,*64
$GPGSA,A,3,01,02,03,04,05,06,07,08,09,10,11,12,1.0,1.0,1.0*30
$GPRMC,120052.000,A,4748.788,N,01357.170,E,039.7,005.2,010121,000.0,W*79
$GPGGA,120053.000,4748.799,N,01357.171,E,1,12,1.0,0.0,M,0.0,M,,*64
$GPGSA,A,3,01,02,03,04,05,06,07,08,09,10,11,12,1.0,1.0,1.0*30
$GPRMC,120053.000,A,4748.799,N,01357.171,E,039.6,000.0,010121,000.0,W*7F
$GPGGA,120054.000,4748.810,N,01357.171,E,1,12,1.0,0.0,M,0.0,M,,*6D
$GPGSA,A,3,01,02,03,04,05,06,07,08,09,10,11,12,1.0,1.0,1.0*30
$GPRMC,120054.000,A,4748.810,N,01357.171,E,036.7,016.6,010121,000.0,W*79
$GPGGA,120055.000,4748.820,N,01357.174,E,1,12,1.0,0.0,M,0.0,M,,*6A
$GPGSA,A,3,01,02,03,04,05,06,07,08,09,10,11,12,1.0,1.0,1.0*30
$GPRMC,120055.000,A,4748.820,N,01357.174,E,039.7,005.2,010121,000.0,W*77
$GPGGA,120056.000,4748.831,N,01357.175,E,1,12,1.0,0.0,M,0.0,M,,*68
$GPGSA,A,3,01,02,03,04,05,06,07,08,09,10,11,12,1.0,1.0,1.0*30
$GPRMC,120056.000,A,4748.831,N,01357.175,E,036.1,005.7,010121,000.0,W*79
$GPGGA,120057.000,4748.841,N,01357.176,E,1,12,1.0,0.0,M,0.0,M,,*6D
$GPGSA,A,3,01,02,03,04,05,06,07,08,09,10,11,12,1.0,1.0,1.0*30
$GPRMC,120057.000,A,4748.841,N,01357.176,E,039.6,000.0,010121,000.0,W*76
$GPGGA,120058.000,4748.852,N,01357.176,E,1,12,1.0,0.0,M,0.0,M,,*60
$GPGSA,A,3,01,02,03,04,05,06,07,08,09,10,11,12,1.0,1.0,1.0*30
$GPRMC,120058.000,A,4748.852,N,01357.176,E,039.7,005.2,010121,000.0,W*7D
$GPGGA,120059.000,4748.863,N,01357.177,E,1,12,1.0,0.0,M,0.0,M,,*62
$GPGSA,A,3,01,02,03,04,05,06,07,08,09,10,11,12,1.0,1.0,1.0*30
$GPRMC,120059.000,A,4748.863,N,01357.177,E,036.0,000.0,010121,000.0,W*70
$GPGGA,120100.000,4748.873,N,01357.177,E,1,12,1.0,0.0,M,0.0,M,,*6E
$GPGSA,A,3,01,02,03,04,05,06,07,08,09,10,11,12,1.0,1.0,1.0*30
$GPRMC,120100.000,A,4748.873,N,01357.177,E,039.7,005.2,010121,000.0,W*73
$GPGGA,120101.000,4748.884,N,01357.178,E,1,12,1.0,0.0,M,0.0,M,,*68
$GPGSA,A,3,01,02,03,04,05,06,07,08,09,10,11,12,1.0,1.0,1.0*30
$GPRMC,120101.000,A,4748.884,N,01357.178,E,039.9,010.3,010121,000.0,W*7E
$GPGGA,120102.000,4748.895,N,01357.180,E,1,12,1.0,0.0,M,0.0,M,,*6C
$GPGSA,A,3,01,02,03,04,05,06,07,08,09,10,11,12,1.0,1.0,1.0*30
$GPRMC,120102.000,A,4748.895,N,01357.180,E,039.7,005.2,010121,000.0,W*71
$GPGGA,120103.000,4748.906,N,01357.181,E,1,12,1.0,0.0,M,0.0,M,,*67
$GPGSA,A,3,01,02,03,04,05,06,07,08,09,10,11,12,1.0,1.0,1.0*30
$GPRMC,120103.000,A,4748.906,N,01357.181,E,039.9,010.3,010121,000.0,W*71
$GPGGA,120104.000,4748.917,N,01357.183,E,1,12,1.0,0.0,M,0.0,M,,*62
$GPGSA,A,3,01,02,03,04,05,06,07,08,09,10,11,12,1.0,1.0,1.0*30
$GPRMC,120104.000,A,4748.917,N,01357.183,E,039.7,005.2,010121,000.0,W*7F
$GPGGA,120105.000,4748.928,N,01357.184,E,1,12,1.0,0.0,M,0.0,M,,*68
$GPGSA,A,3,01,02,03,04,05,06,07,08,09,10,11,12,1.0,1.0,1.0*30
$GPRMC,120105.000,A,4748.928,N,01357.184,E,036.1,005.7,010121,000.0,W*79
$GPGGA,120106.000,4748.938,N,01357.185,E,1,12,1.0,0.0,M,0.0,M,,*6B
$GPGSA,A,3,01,02,03,04,05,06,07,08,09,10,11,12,1.0,1.0,1.0*30
$GPRMC,120106.000,A,4748.938,N,01357.185,E,039.6,000.0,010121,000.0,W*70
$GPGGA,120107.000,4748.949,N,01357.185,E,1,12,1.0,0.0,M,0.0,M,,*6C
$GPGSA,A,3,01,02,03,04,05,06,07,08,09,10,11,12,1.0,1.0,1.0*30
$GPRMC,120107.000,A,4748.949,N,01357.185,E,036.1,005.7,010121,000.0,W*7D
$GPGGA,120108.000,4748.959,N,01357.186,E,1,12,1.0,0.0,M,0.0,M,,*61
$GPGSA,A,3,01,02,03,04,05,06,07,08,09,10,11,12,1.0,1.0,1.0*30
$GPRMC,120108.000,A,4748.959,N,01357.186,E,036.3,011.3,010121,000.0,W*73
$GPGGA,120109.000,4748.969,N,01357.188,E,1,12,1.0,0.0,M,0.0,M,,*6D
$GPGSA,A,3,01,02,03,04,05,06,07,08,09,10,11,12,1.0,1.0,1.0*30
$GPRMC,120109.000,A,4748.969,N,01357.188,E,036.1,354.3,010121,000.0,W*7F
$GPGGA,120110.000,4748.979,N,01357.187,E,1,12,1.0,0.0,M,0.0,M,,*6B
$GPGSA,A,3,01,02,03,04,05,06,07,08,09,10,11,12,1.0,1.0,1.0*30
$GPRMC,120110.000,A,4748.979,N,01357.187,E,033.2,341.6,010121,000.0,W*7E
$GPGGA,120111.000,4748.988,N,01357.184,E,1,12,1.0,0.0,M,0.0,M,,*67
$GPGSA,A,3,01,02,03,04,05,06,07,08,09,10,11,12,1.0,1.0,1.0*30
$GPRMC,120111.000,A,4748.988,N,01357.184,E,034.3,298.7,010121,000.0,W*70
$GPGGA,120112.000,4748.994,N,01357.173,E,1,12,1.0,0.0,M,0.0,M,,*61
$GPGSA,A,3,01,02,03,04,05,06,07,08,09,10,11,12,1.0,1.0,1.0*30
$GPRMC,120112.000,A,4748.994,N,01357.173,E,036.1,311.7,010121,000.0,W*76
$GPGGA,120113.000,4749.002,N,01357.164,E,1,12,1.0,0.0,M,0.0,M,,*61
$GPGSA,A,3,01,02,03,04,05,06,07,08,09,10,11,12,1.0,1.0,1.0*30
$GPRMC,120113.000,A,4749.002,N,01357.164,E,033.3,308.0,010121,000.0,W*7E
$GPGGA,120114.000,4749.009,N,01357.155,E,1,12,1.0,0.0,M,0.0,M,,*6F
$GPGSA,A,3,01,02,03,04,05,06,07,08,09,10,11,12,1.0,1.0,1.0*30
$GPRMC,120114.000,A,4749.009,N,01357.155,E,040.5,312.1,010121,000.0,W*78
$GPGGA,120115.000,4749.018,N,01357.145,E,1,12,1.0,0.0,M,0.0,M,,*6F
$GPGSA,A,3,01,02,03,04,05,06,07,08,09,10,11,12,1.0,1.0,1.0*30
$GPRMC,120115.000,A,4749.018,N,01357.145,E,037.6,308.8,010121,000.0,W*79
$GPGGA,120116.000,4749.026,N,01357.135,E,1,12,1.0,0.0,M,0.0,M,,*66
$GPGSA,A,3,01,02,03,04,05,06,07,08,09,10,11,12,1.0,1.0,1.0*30
$GPRMC,120116.000,A,4749.026,N,01357.135,E,037.6,308.8,010121,000.0,W*70
$GPGGA,120117.000,4749.034,N,01357.125,E,1,12,1.0,0.0,M,0.0,M,,*65
$GPGSA,A,3,01,02,03,04,05,06,07,08,09,10,11,12,1.0,1.0,1.0*30
$GPRMC,120117.000,A,4749.034,N,01357.125,E,037.6,308.8,010121,000.0,W*73
$GPGGA,120118.000,4749.042,N,01357.115,E,1,12,1.0,0.0,M,0.0,M,,*68
$GPGSA,A,3,01,02,03,04,05,06,07,08,09,10,11,12,1.0,1.0,1.0*30
$GPRMC,120118.000,A,4749.042,N,01357.115,E,037.6,308.8,010121,000.0,W*7E
$GPGGA,120119.000,4749.050,N,01357.105,E,1,12,1.0,0.0,M,0.0,M,,*6B
$GPGSA,A,3,01,02,03,04,05,06,07,08,09,10,11,12,1.0,1.0,1.0*30
$GPRMC,120119.000,A,4749.050,N,01357.105,E,039.1,315.1,010121,000.0,W*71
$GPGGA,120120.000,4749.059,N,01357.096,E,1,12,1.0,0.0,M,0.0,M,,*63
$GPGSA,A,3,01,02,03,04,05,06,07,08,09,10,11,12,1.0,1.0,1.0*30
$GPRMC,120120.000,A,4749.059,N,01357.096,E,036.6,322.2,010121,000.0,W*76
$GPGGA,120121.000,4749.068,N,01357.089,E,1,12,1.0,0.0,M,0.0,M,,*6E
$GPGSA,A,3,01,02,03,04,05,06,07,08,09,10,11,12,1.0,1.0,1.0*30
$GPRMC,120121.000,A,4749.068,N,01357.089,E,035.5,326.4,010121,000.0,W*79
$GPGGA,120122.000,4749.077,N,01357.083,E,1,12,1.0,0.0,M,0.0,M,,*69
$GPGSA,A,3,01,02,03,04,05,06,07,08,09,10,11,12,1.0,1.0,1.0*30
$GPRMC,120122.000,A,4749.077,N,01357.083,E,038.8,329.1,010121,000.0,W*74
$GPGGA,120123.000,4749.087,N,01357.077,E,1,12,1.0,0.0,M,0.0,M,,*6C
$GPGSA,A,3,01,02,03,04,05,06,07,08,09,10,11,12,1.0,1.0,1.0*30
$GPRMC,120123.000,A,4749.087,N,01357.077,E,038.8,329.1,010121,000.0,W*71
$GPGGA,120124.000,4749.097,N,01357.071,E,1,12,1.0,0.0,M,0.0,M,,*6C
$GPGSA,A,3,01,02,03,04,05,06,07,08,09,10,11,12,1.0,1.0,1.0*30
$GPRMC,120124.000,A,4749.097,N,01357.071,E,038.8,329.1,010121,000.0,W*71
$GPGGA,120125.000,4749.107,N,01357.065,E,1,12,1.0,0.0,M,0.0,M,,*60
$GPGSA,A,3,01,02,03,04,05,06,07,08,09,10,11,12,1.0,1.0,1.0*30
$GPRMC,120125.000,A,4749.107,N,01357.065,E,038.8,329.1,010121,000.0,W*7D
$GPGGA,120126.000,4749.117,N,01357.059,E,1,12,1.0,0.0,M,0.0,M,,*6D
$GPGSA,A,3,01,02,03,04,05,06,07,08,09,10,11,12,1.0,1.0,1.0*30
$GPRMC,120126.000,A,4749.117,N,01357.059,E,038.0,333.5,010121,000.0,W*77
$GPGGA,120127.000,4749.127,N,01357.054,E,1,12,1.0,0.0,M,0.0,M,,*62
$GPGSA,A,3,01,02,03,04,05,06,07,08,09,10,11,12,1.0,1.0,1.0*30
$GPRMC,120127.000,A,4749.127,N,01357.054,E,044.3,341.6,010121,000.0,W*76
$GPGGA,120128.000,4749.139,N,01357.050,E,1,12,1.0,0.0,M,0.0,M,,*66
$GPGSA,A,3,01,02,03,04,05,06,07,08,09,10,11,12,1.0,1.0,1.0*30
$GPRMC,120128.000,A,4749.139,N,01357.050,E,039.9,349.7,010121,000.0,W*7B
$GPGGA,120129.000,4749.150,N,01357.048,E,1,12,1.0,0.0,M,0.0,M,,*61
$GPGSA,A,3,01,02,03,04,05,06,07,08,09,10,11,12,1.0,1.0,1.0*30
$GPRMC,120129.000,A,4749.150,N,01357.048,E,039.7,354.8,010121,000.0,W*71
$GPGGA,120130.000,4749.161,N,01357.047,E,1,12,1.0,0.0,M,0.0,M,,*64
$GPGSA,A,3,01,02,03,04,05,06,07,08,09,10,11,12,1.0,1.0,1.0*30
$GPRMC,120130.000,A,4749.161,N,01357.047,E,039.6,000.0,010121,000.0,W*7F
$GPGGA,120131.000,4749.172,N,01357.047,E,1,12,1.0,0.0,M,0.0,M,,*67
$GPGSA,A,3,01,02,03,04,05,06,07,08,09,10,11,12,1.0,1.0,1.0*30
$GPRMC,120131.000,A,4749.172,N,01357.047,E,043.3,355.3,010121,000.0,W*74
$GPGGA,120132.000,4749.184,N,01357.046,E,1,12,1.0,0.0,M,0.0,M,,*6C
$GPGSA,A,3,01,02,03,04,05,06,07,08,09,10,11,12,1.0,1.0,1.0*30
$GPRMC,120132.000,A,4749.184,N,01357.046,E,039.6,000.0,010121,000.0,W*77
$GPGGA,120133.000,4749.195,N,01357.046,E,1,12,1.0,0.0,M,0.0,M,,*6D
$GPGSA,A,3,01,02,03,04,05,06,07,08,09,10,11,12,1.0,1.0,1.0*30
$GPRMC,120133.000,A,4749.195,N,01357.046,E,043.3,004.7,010121,000.0,W*7D
$GPGGA,120134.000,4749.207,N,01357.047,E,1,12,1.0,0.0,M,0.0,M,,*63
$GPGSA,A,3,01,02,03,04,05,06,07,08,09,10,11,12,1.0,1.0,1.0*30
$GPRMC,120134.000,A,4749.207,N,01357.047,E,039.9,349.7,010121,000.0,W*7E
$GPGGA,120135.000,4749.218,N,01357.045,E,1,12,1.0,0.0,M,0.0,M,,*6E
$GPGSA,A,3,01,02,03,04,05,06,07,08,09,10,11,12,1.0,1.0,1.0*30
$GPRMC,120135.000,A,4749.218,N,01357.045,E,043.3,355.3,010121,000.0,W*7D
$GPGGA,120136.000,4749.230,N,01357.044,E,1,12,1.0,0.0,M,0.0,M,,*66
$GPGSA,A,3,01,02,03,04,05,06,07,08,09,10,11,12,1.0,1.0,1.0*30
$GPRMC,120136.000,A,4749.230,N,01357.044,E,039.9,349.7,010121,000.0,W*7B
$GPGGA,120137.000,4749.241,N,01357.042,E,1,12,1.0,0.0,M,0.0,M,,*67
$GPGSA,A,3,01,02,03,04,05,06,07,08,09,10,11,12,1.0,1.0,1.0*30
$GPRMC,120137.000,A,4749.241,N,01357.042,E,040.3,344.8,010121,000.0,W*7C
$GPGGA,120138.000,4749.252,N,01357.039,E,1,12,1.0,0.0,M,0.0,M,,*66
$GPGSA,A,3,01,02,03,04,05,06,07,08,09,10,11,12,1.0,1.0,1.0*30
$GPRMC,120138.000,A,4749.252,N,01357.039,E,040.8,340.1,010121,000.0,W*7B
$GPGGA,120139.000,4749.263,N,01357.035,E,1,12,1.0,0.0,M,0.0,M,,*69
$GPGSA,A,3,01,02,03,04,05,06,07,08,09,10,11,12,1.0,1.0,1.0*30
$GPRMC,120139.000,A,4749.263,N,01357.035,E,041.4,335.6,010121,000.0,W*7C
$GPGGA,120140.000,4749.274,N,01357.030,E,1,12,1.0,0.0,M,0.0,M,,*64
$GPGSA,A,3,01,02,03,04,05,06,07,08,09,10,11,12,1.0,1.0,1.0*30
$GPRMC,120140.000,A,4749.274,N,01357.030,E,040.3,344.8,010121,000.0,W*7F
$GPGGA,120141.000,4749.285,N,01357.027,E,1,12,1.0,0.0,M,0.0,M,,*6D
$GPGSA,A,3,01,02,03,04,05,06,07,08,09,10,11,12,1.0,1.0,1.0*30
$GPRMC,120141.000,A,4749.285,N,01357.027,E,040.8,340.1,010121,000.0,W*70
$GPGGA,120142.000,4749.296,N,01357.023,E,1,12,1.0,0.0,M,0.0,M,,*68
$GPGSA,A,3,01,02,03,04,05,06,07,08,09,10,11,12,1.0,1.0,1.0*30
$GPRMC,120142.000,A,4749.296,N,01357.023,E,044.3,341.6,010121,000.0,W*7C
$GPGGA,120143.000,4749.308,N,01357.019,E,1,12,1.0,0.0,M,0.0,M,,*66
$GPGSA,A,3,01,02,03,04,05,06,07,08,09,10,11,12,1.0,1.0,1.0*30
$GPRMC,120143.000,A,4749.308,N,01357.019,E,037.3,338.3,010121,000.0,W*7D
$GPGGA,120144.000,4749.318,N,01357.015,E,1,12,1.0,0.0,M,0.0,M,,*6C
$GPGSA,A,3,01,02,03,04,05,06,07,08,09,10,11,12,1.0,1.0,1.0*30
$GPRMC,120144.000,A,4749.318,N,01357.015,E,040.3,344.8,010121,000.0,W*77
$GPGGA,120145.000,4749.329,N,01357.012,E,1,12,1.0,0.0,M,0.0,M,,*68
$GPGSA,A,3,01,02,03,04,05,06,07,08,09,10,11,12,1.0,1.0,1.0*30
$GPRMC,120145.000,A,4749.329,N,01357.012,E,040.8,340.1,010121,000.0,W*75
$GPGGA,120146.000,4749.340,N,01357.008,E,1,12,1.0,0.0,M,0.0,M,,*6F
$GPGSA,A,3,01,02,03,04,05,06,07,08,09,10,11,12,1.0,1.0,1.0*30
$GPRMC,120146.000,A,4749.340,N,01357.008,E,040.3,344.8,010121,000.0,W*74
$GPGGA,120147.000,4749.351,N,01357.005,E,1,12,1.0,0.0,M,0.0,M,,*63
$GPGSA,A,3,01,02,03,04,05,06,07,08,09,10,11,12,1.0,1.0,1.0*30
$GPRMC,120147.000,A,4749.351,N,01357.005,E,039.9,349.7,010121,000.0,W*7E
$GPGGA,120148.000,4749.362,N,01357.003,E,1,12,1.0,0.0,M,0.0,M,,*6A
$GPGSA,A,3,01,02,03,04,05,06,07,08,09,10,11,12,1.0,1.0,1.0*30
$GPRMC,120148.000,A,4749.362,N,01357.003,E,039.9,349.7,010121,000.0,W*77
$GPGGA,120149.000,4749.373,N,01357.001,E,1,12,1.0,0.0,M,0.0,M,,*69
$GPGSA,A,3,01,02,03,04,05,06,07,08,09,10,11,12,1.0,1.0,1.0*30
$GPRMC,120149.000,A,4749.373,N,01357.001,E,036.1,005.7,010121,000.0,W*78
$GPGGA,120150.000,4749.383,N,01357.002,E,1,12,1.0,0.0,M,0.0,M,,*6D
$GPGSA,A,3,01,02,03,04,05,06,07,08,09,10,11,12,1.0,1.0,1.0*30
$GPRMC,120150.000,A,4749.383,N,01357.002,E,040.3,015.2,010121,000.0,W*7B
$GPGGA,120151.000,4749.394,N,01357.005,E,1,12,1.0,0.0,M,0.0,M,,*6D
$GPGSA,A,3,01,02,03,04,05,06,07,08,09,10,11,12,1.0,1.0,1.0*30
$GPRMC,120151.000,A,4749.394,N,01357.005,E,033.2,018.4,010121,000.0,W*75
$GPGGA,120152.000,4749.403,N,01357.008,E,1,12,1.0,0.0,M,0.0,M,,*6A
$GPGSA,A,3,01,02,03,04,05,06,07,08,09,10,11,12,1.0,1.0,1.0*30
$GPRMC,120152.000,A,4749.403,N,01357.008,E,030.4,026.5,010121,000.0,W*7B
$GPGGA,120153.000,4749.411,N,01357.012,E,1,12,1.0,0.0,M,0.0,M,,*63
$GPGSA,A,3,01,02,03,04,05,06,07,08,09,10,11,12,1.0,1.0,1.0*30
$GPRMC,120153.000,A,4749.411,N,01357.012,E,031.3,031.9,010121,000.0,W*7E
$GPGGA,120154.000,4749.419,N,01357.017,E,1,12,1.0,0.0,M,0.0,M,,*69
$GPGSA,A,3,01,02,03,04,05,06,07,08,09,10,11,12,1.0,1.0,1.0*30
$GPRMC,120154.000,A,4749.419,N,01357.017,E,032.3,036.8,010121,000.0,W*71
$GPGGA,120155.000,4749.427,N,01357.023,E,1,12,1.0,0.0,M,0.0,M,,*62
$GPGSA,A,3,01,02,03,04,05,06,07,08,09,10,11,12,1.0,1.0,1.0*30
$GPRMC,120155.000,A,4749.427,N,01357.023,E,031.8,048.7,010121,000.0,W*74
$GPGGA,120156.000,4749.434,N,01357.031,E,1,12,1.0,0.0,M,0.0,M,,*60
$GPGSA,A,3,01,02,03,04,05,06,07,08,09,10,11,12,1.0,1.0,1.0*30
$GPRMC,120156.000,A,4749.434,N,01357.031,E,036.1,048.3,010121,000.0,W*7C
$GPGGA,120157.000,4749.442,N,01357.040,E,1,12,1.0,0.0,M,0.0,M,,*66
$GPGSA,A,3,01,02,03,04,05,06,07,08,09,10,11,12,1.0,1.0,1.0*30
$GPRMC,120157.000,A,4749.442,N,01357.040,E,033.3,052.0,010121,000.0,W*75
$GPGGA,120158.000,4749.449,N,01357.049,E,1,12,1.0,0.0,M,0.0,M,,*6B
$GPGSA,A,3,01,02,03,04,05,06,07,08,09,10,11,12,1.0,1.0,1.0*30
$GPRMC,120158.000,A,4749.449,N,01357.049,E,037.6,051.2,010121,000.0,W*78
$GPGGA,120159.000,4749.457,N,01357.059,E,1,12,1.0,0.0,M,0.0,M,,*64
$GPGSA,A,3,01,02,03,04,05,06,07,08,09,10,11,12,1.0,1.0,1.0*30
$GPRMC,120159.000,A,4749.457,N,01357.059,E,033.3,052.0,010121,000.0,W*77
$GPGGA,120200.000,4749.464,N,01357.068,E,1,12,1.0,0.0,M,0.0,M,,*69
$GPGSA,A,3,01,02,03,04,05,06,07,08,09,10,11,12,1.0,1.0,1.0*30
$GPRMC,120200.000,A,4749.464,N,01357.068,E,034.9,054.9,010121,000.0,W*78
$GPGGA,120201.000,4749.471,N,01357.078,E,1,12,1.0,0.0,M,0.0,M,,*6D
$GPGSA,A,3,01,02,03,04,05,06,07,08,09,10,11,12,1.0,1.0,1.0*30
$GPRMC,120201.000,A,4749.471,N,01357.078,E,034.9,054.9,010121,000.0,W*7C
$GPGGA,120202.000,4749.478,N,01357.088,E,1,12,1.0,0.0,M,0.0,M,,*68
$GPGSA,A,3,01,02,03,04,05,06,07,08,09,10,11,12,1.0,1.0,1.0*30
$GPRMC,120202.000,A,4749.478,N,01357.088,E,034.9,054.9,010121,000.0,W*79
$GPGGA,120203.000,4749.485,N,01357.098,E,1,12,1.0,0.0,M,0.0,M,,*6A
$GPGSA,A,3,01,02,03,04,05,06,07,08,09,10,11,12,1.0,1.0,1.0*30
$GPRMC,120203.000,A,4749.485,N,01357.098,E,030.7,056.2,010121,000.0,W*78
$GPGGA,120204.000,4749.491,N,01357.107,E,1,12,1.0,0.0,M,0.0,M,,*6F
$GPGSA,A,3,01,02,03,04,05,06,07,08,09,10,11,12,1.0,1.0,1.0*30
$GPRMC,120204.000,A,4749.491,N,01357.107,E,033.3,052.0,010121,000.0,W*7C
$GPGGA,120205.000,4749.498,N,01357.116,E,1,12,1.0,0.0,M,0.0,M,,*67
$GPGSA,A,3,01,02,03,04,05,06,07,08,09,10,11,12,1.0,1.0,1.0*30
$GPRMC,120205.000,A,4749.498,N,01357.116,E,030.4,044.9,010121,000.0,W*7E
$GPGGA,120206.000,4749.505,N,01357.123,E,1,12,1.0,0.0,M,0.0,M,,*67
$GPGSA,A,3,01,02,03,04,05,06,07,08,09,10,11,12,1.0,1.0,1.0*30
$GPRMC,120206.000,A,4749.505,N,01357.123,E,028.0,035.4,010121,000.0,W*78
$GPGGA,120207.000,4749.512,N,01357.128,E,1,12,1.0,0.0,M,0.0,M,,*6B
$GPGSA,A,3,01,02,03,04,05,06,07,08,09,10,11,12,1.0,1.0,1.0*30
$GPRMC,120207.000,A,4749.512,N,01357.128,E,030.4,026.5,010121,000.0,W*7A
$GPGGA,120208.000,4749.520,N,01357.132,E,1,12,1.0,0.0,M,0.0,M,,*6E
$GPGSA,A,3,01,02,03,04,05,06,07,08,09,10,11,12,1.0,1.0,1.0*30
$GPRMC,120208.000,A,4749.520,N,01357.132,E,029.7,020.5,010121,000.0,W*72
$GPGGA,120209.000,4749.528,N,01357.135,E,1,12,1.0,0.0,M,0.0,M,,*60
$GPGSA,A,3,01,02,03,04,05,06,07,08,09,10,11,12,1.0,1.0,1.0*30
$GPRMC,120209.000,A,4749.528,N,01357.135,E,036.0,000.0,010121,000.0,W*72
$GPGGA,120210.000,4749.538,N,01357.135,E,1,12,1.0,0.0,M,0.0,M,,*69
$GPGSA,A,3,01,02,03,04,05,06,07,08,09,10,11,12,1.0,1.0,1.0*30
$GPRMC,120210.000,A,4749.538,N,01357.135,E,032.5,006.3,010121,000.0,W*7F
$GPGGA,120211.000,4749.547,N,01357.136,E,1,12,1.0,0.0,M,0.0,M,,*63
$GPGSA,A,3,01,02,03,04,05,06,07,08,09,10,11,12,1.0,1.0,1.0*30
$GPRMC,120211.000,A,4749.547,N,01357.136,E,039.7,354.8,010121,000.0,W*73
$GPGGA,120212.000,4749.558,N,01357.135,E,1,12,1.0,0.0,M,0.0,M,,*6D
$GPGSA,A,3,01,02,03,04,05,06,07,08,09,10,11,12,1.0,1.0,1.0*30
$GPRMC,120212.000,A,4749.558,N,01357.135,E,036.7,343.4,010121,000.0,W*78
$GPGGA,120213.000,4749.568,N,01357.132,E,1,12,1.0,0.0,M,0.0,M,,*68
$GPGSA,A,3,01,02,03,04,05,06,07,08,09,10,11,12,1.0,1.0,1.0*30
$GPRMC,120213.000,A,4749.568,N,01357.132,E,036.7,343.4,010121,000.0,W*7D
$GPGGA,120214.000,4749.578,N,01357.129,E,1,12,1.0,0.0,M,0.0,M,,*64
$GPGSA,A,3,01,02,03,04,05,06,07,08,09,10,11,12,1.0,1.0,1.0*30
$GPRMC,120214.000,A,4749.578,N,01357.129,E,036.7,343.4,010121,000.0,W*71
$GPGGA,120215.000,4749.588,N,01357.126,E,1,12,1.0,0.0,M,0.0,M,,*65
$GPGSA,A,3,01,02,03,04,05,06,07,08,09,10,11,12,1.0,1.0,1.0*30
$GPRMC,120215.000,A,4749.588,N,01357.126,E,036.1,354.3,010121,000.0,W*77
$GPGGA,120216.000,4749.598,N,01357.125,E,1,12,1.0,0.0,M,0.0,M,,*64
$GPGSA,A,3,01,02,03,04,05,06,07,08,09,10,11,12,1.0,1.0,1.0*30
$GPRMC,120216.000,A,4749.598,N,01357.125,E,036.1,354.3,010121,000.0,W*76
$GPGGA,120217.000,4749.608,N,01357.124,E,1,12,1.0,0.0,M,0.0,M,,*6E
$GPGSA,A,3,01,02,03,04,05,06,07,08,09,10,11,12,1.0,1.0,1.0*30
$GPRMC,120217.000,A,4749.608,N,01357.124,E,036.1,005.7,010121,000.0,W*7F
$GPGGA,120218.000,4749.618,N,01357.125,E,1,12,1.0,0.0,M,0.0,M,,*61
$GPGSA,A,3,01,02,03,04,05,06,07,08,09,10,11,12,1.0,1.0,1.0*30
$GPRMC,120218.000,A,4749.618,N,01357.125,E,039.7,005.2,010121,000.0,W*7C
$GPGGA,120219.000,4749.629,N,01357.126,E,1,12,1.0,0.0,M,0.0,M,,*61
$GPGSA,A,3,01,02,03,04,05,06,07,08,09,10,11,12,1.0,1.0,1.0*30
$GPRMC,120219.000,A,4749.629,N,01357.126,E,036.7,016.6,010121,000.0,W*75
$GPGGA,120220.000,4749.639,N,01357.129,E,1,12,1.0,0.0,M,0.0,M,,*65
$GPGSA,A,3,01,02,03,04,05,06,07,08,09,10,11,12,1.0,1.0,1.0*30
$GPRMC,120220.000,A,4749.639,N,01357.129,E,038.0,026.5,010121,000.0,W*78
$GPGGA,120221.000,4749.649,N,01357.134,E,1,12,1.0,0.0,M,0.0,M,,*6F
$GPGSA,A,3,01,02,03,04,05,06,07,08,09,10,11,12,1.0,1.0,1.0*30
$GPRMC,120221.000,A,4749.649,N,01357.134,E,039.8,034.9,010121,000.0,W*74
$GPGGA,120222.000,4749.659,N,01357.141,E,1,12,1.0,0.0,M,0.0,M,,*6F
$GPGSA,A,3,01,02,03,04,05,06,07,08,09,10,11,12,1.0,1.0,1.0*30
$GPRMC,120222.000,A,4749.659,N,01357.141,E,038.8,030.9,010121,000.0,W*71
$GPGGA,120223.000,4749.669,N,01357.147,E,1,12,1.0,0.0,M,0.0,M,,*6B
$GPGSA,A,3,01,02,03,04,05,06,07,08,09,10,11,12,1.0,1.0,1.0*30
$GPRMC,120223.000,A,4749.669,N,01357.147,E,039.1,044.9,010121,000.0,W*7E
$GPGGA,120224.000,4749.678,N,01357.156,E,1,12,1.0,0.0,M,0.0,M,,*6C
$GPGSA,A,3,01,02,03,04,05,06,07,08,09,10,11,12,1.0,1.0,1.0*30
$GPRMC,120224.000,A,4749.678,N,01357.156,E,040.9,056.2,010121,000.0,W*77
$GPGGA,120225.000,4749.686,N,01357.168,E,1,12,1.0,0.0,M,0.0,M,,*61
$GPGSA,A,3,01,02,03,04,05,06,07,08,09,10,11,12,1.0,1.0,1.0*30
$GPRMC,120225.000,A,4749.686,N,01357.168,E,037.6,051.2,010121,000.0,W*72
$GPGGA,120226.000,4749.694,N,01357.178,E,1,12,1.0,0.0,M,0.0,M,,*60
$GPGSA,A,3,01,02,03,04,05,06,07,08,09,10,11,12,1.0,1.0,1.0*30
$GPRMC,120226.000,A,4749.694,N,01357.178,E,037.6,051.2,010121,000.0,W*73
$GPGGA,120227.000,4749.702,N,01357.188,E,1,12,1.0,0.0,M,0.0,M,,*60
$GPGSA,A,3,01,02,03,04,05,06,07,08,09,10,11,12,1.0,1.0,1.0*30
$GPRMC,120227.000,A,4749.702,N,01357.188,E,036.1,048.3,010121,000.0,W*7C
$GPGGA,120228.000,4749.710,N,01357.197,E,1,12,1.0,0.0,M,0.0,M,,*62
$GPGSA,A,3,01,02,03,04,05,06,07,08,09,10,11,12,1.0,1.0,1.0*30
$GPRMC,120228.000,A,4749.710,N,01357.197,E,039.1,044.9,010121,000.0,W*77
$GPGGA,120229.000,4749.719,N,01357.206,E,1,12,1.0,0.0,M,0.0,M,,*61
$GPGSA,A,3,01,02,03,04,05,06,07,08,09,10,11,12,1.0,1.0,1.0*30
$GPRMC,120229.000,A,4749.719,N,01357.206,E,034.7,044.9,010121,000.0,W*7F
$GPGGA,120230.000,4749.727,N,01357.214,E,1,12,1.0,0.0,M,0.0,M,,*67
$GPGSA,A,3,01,02,03,04,05,06,07,08,09,10,11,12,1.0,1.0,1.0*30
$GPRMC,120230.000,A,4749.727,N,01357.214,E,035.5,033.6,010121,000.0,W*75
$GPGGA,120231.000,4749.736,N,01357.220,E,1,12,1.0,0.0,M,0.0,M,,*61
$GPGSA,A,3,01,02,03,04,05,06,07,08,09,10,11,12,1.0,1.0,1.0*30
$GPRMC,120231.000,A,4749.736,N,01357.220,E,035.5,033.6,010121,000.0,W*73
$GPGGA,120232.000,4749.745,N,01357.226,E,1,12,1.0,0.0,M,0.0,M,,*60
$GPGSA,A,3,01,02,03,04,05,06,07,08,09,10,11,12,1.0,1.0,1.0*30
$GPRMC,120232.000,A,4749.745,N,01357.226,E,037.3,021.7,010121,000.0,W*74
$GPGGA,120233.000,4749.755,N,01357.230,E,1,12,1.0,0.0,M,0.0,M,,*67
$GPGSA,A,3,01,02,03,04,05,06,07,08,09,10,11,12,1.0,1.0,1.0*30
$GPRMC,120233.000,A,4749.755,N,01357.230,E,036.7,016.6,010121,000.0,W*73
$GPGGA,120234.000,4749.765,N,01357.233,E,1,12,1.0,0.0,M,0.0,M,,*60
$GPGSA,A,3,01,02,03,04,05,06,07,08,09,10,11,12,1.0,1.0,1.0*30
$GPRMC,120234.000,A,4749.765,N,01357.233,E,036.3,011.3,010121,000.0,W*72
$GPGGA,120235.000,4749.775,N,01357.235,E,1,12,1.0,0.0,M,0.0,M,,*66
$GPGSA,A,3,01,02,03,04,05,06,07,08,09,10,11,12,1.0,1.0,1.0*30
$GPRMC,120235.000,A,4749.775,N,01357.235,E,036.7,016.6,010121,000.0,W*72
$GPGGA,120236.000,4749.785,N,01357.238,E,1,12,1.0,0.0,M,0.0,M,,*67
$GPGSA,A,3,01,02,03,04,05,06,07,08,09,10,11,12,1.0,1.0,1.0*30
$GPRMC,120236.000,A,4749.785,N,01357.238,E,036.1,005.7,010121,000.0,W*76
$GPGGA,120237.000,4749.795,N,01357.239,E,1,12,1.0,0.0,M,0.0,M,,*66
$GPGSA,A,3,01,02,03,04,05,06,07,08,09,10,11,12,1.0,1.0,1.0*30
$GPRMC,120237.000,A,4749.795,N,01357.239,E,036.3,011.3,010121,000.0,W*74
$GPGGA,120238.000,4749.805,N,01357.241,E,1,12,1.0,0.0,M,0.0,M,,*60
$GPGSA,A,3,01,02,03,04,05,06,07,08,09,10,11,12,1.0,1.0,1.0*30
$GPRMC,120238.000,A,4749.805,N,01357.241,E,032.5,006.3,010121,000.0,W*76
$GPGGA,120239.000,4749.814,N,01357.242,E,1,12,1.0,0.0,M,0.0,M,,*62
$GPGSA,A,3,01,02,03,04,05,06,07,08,09,10,11,12,1.0,1.0,1.0*30
$GPRMC,120239.000,A,4749.814,N,01357.242,E,036.7,343.4,010121,000.0,W*77
$GPGGA,120240.000,4749.824,N,01357.239,E,1,12,1.0,0.0,M,0.0,M,,*63
$GPGSA,A,3,01,02,03,04,05,06,07,08,09,10,11,12,1.0,1.0,1.0*30
$GPRMC,120240.000,A,4749.824,N,01357.239,E,033.2,341.6,010121,000.0,W*76
$GPGGA,120241.000,4749.833,N,01357.236,E,1,12,1.0,0.0,M,0.0,M,,*6B
$GPGSA,A,3,01,02,03,04,05,06,07,08,09,10,11,12,1.0,1.0,1.0*30
$GPRMC,120241.000,A,4749.833,N,01357.236,E,035.5,326.4,010121,000.0,W*7C
$GPGGA,120242.000,4749.842,N,01357.230,E,1,12,1.0,0.0,M,0.0,M,,*68
$GPGSA,A,3,01,02,03,04,05,06,07,08,09,10,11,12,1.0,1.0,1.0*30
$GPRMC,120242.000,A,4749.842,N,01357.230,E,034.6,331.0,010121,000.0,W*7F
$GPGGA,120243.000,4749.851,N,01357.225,E,1,12,1.0,0.0,M,0.0,M,,*6F
$GPGSA,A,3,01,02,03,04,05,06,07,08,09,10,11,12,1.0,1.0,1.0*30
$GPRMC,120243.000,A,4749.851,N,01357.225,E,034.6,331.0,010121,000.0,W*78
$GPGGA,120244.000,4749.860,N,01357.220,E,1,12,1.0,0.0,M,0.0,M,,*6F
$GPGSA,A,3,01,02,03,04,05,06,07,08,09,10,11,12,1.0,1.0,1.0*30
$GPRMC,120244.000,A,4749.860,N,01357.220,E,030.4,315.1,010121,000.0,W*79
$GPGGA,120245.000,4749.867,N,01357.213,E,1,12,1.0,0.0,M,0.0,M,,*69
$GPGSA,A,3,01,02,03,04,05,06,07,08,09,10,11,12,1.0,1.0,1.0*30
$GPRMC,120245.000,A,4749.867,N,01357.213,E,032.4,301.1,010121,000.0,W*78
$GPGGA,120246.000,4749.873,N,01357.203,E,1,12,1.0,0.0,M,0.0,M,,*6E
$GPGSA,A,3,01,02,03,04,05,06,07,08,09,10,11,12,1.0,1.0,1.0*30
$GPRMC,120246.000,A,4749.873,N,01357.203,E,032.4,301.1,010121,000.0,W*7F
$GPGGA,120247.000,4749.879,N,01357.193,E,1,12,1.0,0.0,M,0.0,M,,*6F
$GPGSA,A,3,01,02,03,04,05,06,07,08,09,10,11,12,1.0,1.0,1.0*30
$GPRMC,120247.000,A,4749.879,N,01357.193,E,034.3,298.7,010121,000.0,W*78
$GPGGA,120248.000,4749.885,N,01357.182,E,1,12,1.0,0.0,M,0.0,M,,*63
$GPGSA,A,3,01,02,03,04,05,06,07,08,09,10,11,12,1.0,1.0,1.0*30
$GPRMC,120248.000,A,4749.885,N,01357.182,E,034.9,305.1,010121,000.0,W*7D
$GPGGA,120249.000,4749.892,N,01357.172,E,1,12,1.0,0.0,M,0.0,M,,*6B
$GPGSA,A,3,01,02,03,04,05,06,07,08,09,10,11,12,1.0,1.0,1.0*30
$GPRMC,120249.000,A,4749.892,N,01357.172,E,036.7,302.6,010121,000.0,W*79
$GPGGA,120250.000,4749.899,N,01357.161,E,1,12,1.0,0.0,M,0.0,M,,*6A
$GPGSA,A,3,01,02,03,04,05,06,07,08,09,10,11,12,1.0,1.0,1.0*30
$GPRMC,120250.000,A,4749.899,N,01357.161,E,034.3,298.7,010121,000.0,W*7D
$GPGGA,120251.000,4749.905,N,01357.150,E,1,12,1.0,0.0,M,0.0,M,,*6D
$GPGSA,A,3,01,02,03,04,05,06,07,08,09,10,11,12,1.0,1.0,1.0*30
$GPRMC,120251.000,A,4749.905,N,01357.150,E,036.7,302.6,010121,000.0,W*7F
$GPGGA,120252.000,4749.912,N,01357.139,E,1,12,1.0,0.0,M,0.0,M,,*67
$GPGSA,A,3,01,02,03,04,05,06,07,08,09,10,11,12,1.0,1.0,1.0*30
$GPRMC,120252.000,A,4749.912,N,01357.139,E,034.3,298.7,010121,000.0,W*70
$GPGGA,120253.000,4749.918,N,01357.128,E,1,12,1.0,0.0,M,0.0,M,,*6C
$GPGSA,A,3,01,02,03,04,05,06,07,08,09,10,11,12,1.0,1.0,1.0*30
$GPRMC,120253.000,A,4749.918,N,01357.128,E,032.4,301.1,010121,000.0,W*7D
$GPGGA,120254.000,4749.924,N,01357.118,E,1,12,1.0,0.0,M,0.0,M,,*67
$GPGSA,A,3,01,02,03,04,05,06,07,08,09,10,11,12,1.0,1.0,1.0*30
$GPRMC,120254.000,A,4749.924,N,01357.118,E,036.2,296.6,010121,000.0,W*7C
$GPGGA,120255.000,4749.930,N,01357.106,E,1,12,1.0,0.0,M,0.0,M,,*6C
$GPGSA,A,3,01,02,03,04,05,06,07,08,09,10,11,12,1.0,1.0,1.0*30
$GPRMC,120255.000,A,4749.930,N,01357.106,E,034.3,298.7,010121,000.0,W*7B
$GPGGA,120256.000,4749.936,N,01357.095,E,1,12,1.0,0.0,M,0.0,M,,*62
$GPGSA,A,3,01,02,03,04,05,06,07,08,09,10,11,12,1.0,1.0,1.0*30
$GPRMC,120256.000,A,4749.936,N,01357.095,E,032.4,301.1,010121,000.0,W*73
$GPGGA,120257.000,4749.942,N,01357.085,E,1,12,1.0,0.0,M,0.0,M,,*61
$GPGSA,A,3,01,02,03,04,05,06,07,08,09,10,11,12,1.0,1.0,1.0*30
$GPRMC,120257.000,A,4749.942,N,01357.085,E,031.8,311.3,010121,000.0,W*7C
$GPGGA,120258.000,4749.949,N,01357.077,E,1,12,1.0,0.0,M,0.0,M,,*68
$GPGSA,A,3,01,02,03,04,05,06,07,08,09,10,11,12,1.0,1.0,1.0*30
$GPRMC,120258.000,A,4749.949,N,01357.077,E,027.5,310.7,010121,000.0,W*7A
$GPGGA,120259.000,4749.955,N,01357.070,E,1,12,1.0,0.0,M,0.0,M,,*63
$GPGSA,A,3,01,02,03,04,05,06,07,08,09,10,11,12,1.0,1.0,1.0*30
$GPRMC,120259.000,A,4749.955,N,01357.070,E,026.0,315.1,010121,000.0,W*76
$GPGGA,120300.000,4749.961,N,01357.064,E,1,12,1.0,0.0,M,0.0,M,,*6C
$GPGSA,A,3,01,02,03,04,05,06,07,08,09,10,11,12,1.0,1.0,1.0*30
$GPRMC,120300.000,A,4749.961,N,01357.064,E,029.2,346.0,010121,000.0,W*73
$GPGGA,120301.000,4749.969,N,01357.062,E,1,12,1.0,0.0,M,0.0,M,,*63
$GPGSA,A,3,01,02,03,04,05,06,07,08,09,10,11,12,1.0,1.0,1.0*30
$GPRMC,120301.000,A,4749.969,N,01357.062,E,028.8,000.0,010121,000.0,W*76
$GPGGA,120302.000,4749.977,N,01357.062,E,1,12,1.0,0.0,M,0.0,M,,*6F
$GPGSA,A,3,01,02,03,04,05,06,07,08,09,10,11,12,1.0,1.0,1.0*30
$GPRMC,120302.000,A,4749.977,N,01357.062,E,028.8,000.0,010121,000.0,W*7A
$GPGGA,120303.000,4749.985,N,01357.062,E,1,12,1.0,0.0,M,0.0,M,,*63
$GPGSA,A,3,01,02,03,04,05,06,07,08,09,10,11,12,1.0,1.0,1.0*30
$GPRMC,120303.000,A,4749.985,N,01357.062,E,028.9,007.1,010121,000.0,W*71
$GPGGA,120304.000,4749.993,N,01357.063,E,1,12,1.0,0.0,M,0.0,M,,*62
$GPGSA,A,3,01,02,03,04,05,06,07,08,09,10,11,12,1.0,1.0,1.0*30
$GPRMC,120304.000,A,4749.993,N,01357.063,E,032.8,012.5,010121,000.0,W*7A
$GPGGA,120305.000,4750.002,N,01357.065,E,1,12,1.0,0.0,M,0.0,M,,*6C
$GPGSA,A,3,01,02,03,04,05,06,07,08,09,10,11,12,1.0,1.0,1.0*30
$GPRMC,120305.000,A,4750.002,N,01357.065,E,031.3,031.9,010121,000.0,W*71
$GPGGA,120306.000,4750.010,N,01357.070,E,1,12,1.0,0.0,M,0.0,M,,*68
$GPGSA,A,3,01,02,03,04,05,06,07,08,09,10,11,12,1.0,1.0,1.0*30
$GPRMC,120306.000,A,4750.010,N,01357.070,E,033.8,023.9,010121,000.0,W*7F
$GPGGA,120307.000,4750.019,N,01357.074,E,1,12,1.0,0.0,M,0.0,M,,*64
$GPGSA,A,3,01,02,03,04,05,06,07,08,09,10,11,12,1.0,1.0,1.0*30
$GPRMC,120307.000,A,4750.019,N,01357.074,E,030.4,026.5,010121,000.0,W*75
$GPGGA,120308.000,4750.027,N,01357.078,E,1,12,1.0,0.0,M,0.0,M,,*6A
$GPGSA,A,3,01,02,03,04,05,06,07,08,09,10,11,12,1.0,1.0,1.0*30
$GPRMC,120308.000,A,4750.027,N,01357.078,E,033.8,023.9,010121,000.0,W*7D
$GPGGA,120309.000,4750.036,N,01357.082,E,1,12,1.0,0.0,M,0.0,M,,*6E
$GPGSA,A,3,01,02,03,04,05,06,07,08,09,10,11,12,1.0,1.0,1.0*30
$GPRMC,120309.000,A,4750.036,N,01357.082,E,030.4,026.5,010121,000.0,W*7F
$GPGGA,120310.000,4750.044,N,01357.086,E,1,12,1.0,0.0,M,0.0,M,,*67
$GPGSA,A,3,01,02,03,04,05,06,07,08,09,10,11,12,1.0,1.0,1.0*30
$GPRMC,120310.000,A,4750.044,N,01357.086,E,032.4,000.0,010121,000.0,W*75
$GPGGA,120311.000,4750.053,N,01357.086,E,1,12,1.0,0.0,M,0.0,M,,*60
$GPGSA,A,3,01,02,03,04,05,06,07,08,09,10,11,12,1.0,1.0,1.0*30
$GPRMC,120311.000,A,4750.053,N,01357.086,E,032.5,353.7,010121,000.0,W*71
$GPGGA,120312.000,4750.062,N,01357.085,E,1,12,1.0,0.0,M,0.0,M,,*62
$GPGSA,A,3,01,02,03,04,05,06,07,08,09,10,11,12,1.0,1.0,1.0*30
$GPRMC,120312.000,A,4750.062,N,01357.085,E,029.2,346.0,010121,000.0,W*7D
$GPGGA,120313.000,4750.070,N,01357.083,E,1,12,1.0,0.0,M,0.0,M,,*66
$GPGSA,A,3,01,02,03,04,05,06,07,08,09,10,11,12,1.0,1.0,1.0*30
$GPRMC,120313.000,A,4750.070,N,01357.083,E,030.4,333.5,010121,000.0,W*70
$GPGGA,120314.000,4750.078,N,01357.079,E,1,12,1.0,0.0,M,0.0,M,,*6C
$GPGSA,A,3,01,02,03,04,05,06,07,08,09,10,11,12,1.0,1.0,1.0*30
$GPRMC,120314.000,A,4750.078,N,01357.079,E,033.2,341.6,010121,000.0,W*79
$GPGGA,120315.000,4750.087,N,01357.076,E,1,12,1.0,0.0,M,0.0,M,,*62
$GPGSA,A,3,01,02,03,04,05,06,07,08,09,10,11,12,1.0,1.0,1.0*30
$GPRMC,120315.000,A,4750.087,N,01357.076,E,029.1,319.5,010121,000.0,W*71
$GPGGA,120316.000,4750.094,N,01357.070,E,1,12,1.0,0.0,M,0.0,M,,*65
$GPGSA,A,3,01,02,03,04,05,06,07,08,09,10,11,12,1.0,1.0,1.0*30
$GPRMC,120316.000,A,4750.094,N,01357.070,E,034.7,315.1,010121,000.0,W*74
$GPGGA,120317.000,4750.102,N,01357.062,E,1,12,1.0,0.0,M,0.0,M,,*69
$GPGSA,A,3,01,02,03,04,05,06,07,08,09,10,11,12,1.0,1.0,1.0*30
$GPRMC,120317.000,A,4750.102,N,01357.062,E,032.4,301.1,010121,000.0,W*78
$GPGGA,120318.000,4750.108,N,01357.052,E,1,12,1.0,0.0,M,0.0,M,,*6F
$GPGSA,A,3,01,02,03,04,05,06,07,08,09,10,11,12,1.0,1.0,1.0*30
$GPRMC,120318.000,A,4750.108,N,01357.052,E,033.3,308.0,010121,000.0,W*70
$GPGGA,120319.000,4750.115,N,01357.043,E,1,12,1.0,0.0,M,0.0,M,,*62
$GPGSA,A,3,01,02,03,04,05,06,07,08,09,10,11,12,1.0,1.0,1.0*30
$GPRMC,120319.000,A,4750.115,N,01357.043,E,036.1,311.7,010121,000.0,W*75
$GPGGA,120320.000,4750.123,N,01357.034,E,1,12,1.0,0.0,M,0.0,M,,*6D
$GPGSA,A,3,01,02,03,04,05,06,07,08,09,10,11,12,1.0,1.0,1.0*30
$GPRMC,120320.000,A,4750.123,N,01357.034,E,036.1,311.7,010121,000.0,W*7A
$GPGGA,120321.000,4750.131,N,01357.025,E,1,12,1.0,0.0,M,0.0,M,,*6F
$GPGSA,A,3,01,02,03,04,05,06,07,08,09,10,11,12,1.0,1.0,1.0*30
$GPRMC,120321.000,A,4750.131,N,01357.025,E,040.4,312.1,010121,000.0,W*79
$GPGGA,120322.000,4750.140,N,01357.015,E,1,12,1.0,0.0,M,0.0,M,,*69
$GPGSA,A,3,01,02,03,04,05,06,07,08,09,10,11,12,1.0,1.0,1.0*30
$GPRMC,120322.000,A,4750.140,N,01357.015,E,037.6,308.8,010121,000.0,W*7F
$GPGGA,120323.000,4750.148,N,01357.005,E,1,12,1.0,0.0,M,0.0,M,,*61
$GPGSA,A,3,01,02,03,04,05,06,07,08,09,10,11,12,1.0,1.0,1.0*30
$GPRMC,120323.000,A,4750.148,N,01357.005,E,041.9,309.4,010121,000.0,W*74
$GPGGA,120324.000,4750.157,N,01356.994,E,1,12,1.0,0.0,M,0.0,M,,*68
$GPGSA,A,3,01,02,03,04,05,06,07,08,09,10,11,12,1.0,1.0,1.0*30
$GPRMC,120324.000,A,4750.157,N,01356.994,E,037.6,308.8,010121,000.0,W*7E
$GPGGA,120325.000,4750.165,N,01356.984,E,1,12,1.0,0.0,M,0.0,M,,*69
$GPGSA,A,3,01,02,03,04,05,06,07,08,09,10,11,12,1.0,1.0,1.0*30
$GPRMC,120325.000,A,4750.165,N,01356.984,E,041.9,309.4,010121,000.0,W*7C
$GPGGA,120326.000,4750.174,N,01356.973,E,1,12,1.0,0.0,M,0.0,M,,*62
$GPGSA,A,3,01,02,03,04,05,06,07,08,09,10,11,12,1.0,1.0,1.0*30
$GPRMC,120326.000,A,4750.174,N,01356.973,E,040.4,312.1,010121,000.0,W*74
$GPGGA,120327.000,4750.183,N,01356.963,E,1,12,1.0,0.0,M,0.0,M,,*6A
$GPGSA,A,3,01,02,03,04,05,06,07,08,09,10,11,12,1.0,1.0,1.0*30
$GPRMC,120327.000,A,4750.183,N,01356.963,E,041.9,309.4,010121,000.0,W*7F
$GPGGA,120328.000,4750.192,N,01356.952,E,1,12,1.0,0.0,M,0.0,M,,*67
$GPGSA,A,3,01,02,03,04,05,06,07,08,09,10,11,12,1.0,1.0,1.0*30
$GPRMC,120328.000,A,4750.192,N,01356.952,E,041.9,309.4,010121,000.0,W*72
$GPGGA,120329.000,4750.201,N,01356.941,E,1,12,1.0,0.0,M,0.0,M,,*6D
$GPGSA,A,3,01,02,03,04,05,06,07,08,09,10,11,12,1.0,1.0,1.0*30
$GPRMC,120329.000,A,4750.201,N,01356.941,E,041.9,309.4,010121,000.0,W*78
$GPGGA,120330.000,4750.210,N,01356.930,E,1,12,1.0,0.0,M,0.0,M,,*63
$GPGSA,A,3,01,02,03,04,05,06,07,08,09,10,11,12,1.0,1.0,1.0*30
$GPRMC,120330.000,A,4750.210,N,01356.930,E,040.4,312.1,010121,000.0,W*75
$GPGGA,120331.000,4750.219,N,01356.920,E,1,12,1.0,0.0,M,0.0,M,,*6A
$GPGSA,A,3,01,02,03,04,05,06,07,08,09,10,11,12,1.0,1.0,1.0*30
$GPRMC,120331.000,A,4750.219,N,01356.920,E,037.6,308.8,010121,000.0,W*7C
$GPGGA,120332.000,4750.227,N,01356.910,E,1,12,1.0,0.0,M,0.0,M,,*67
$GPGSA,A,3,01,02,03,04,05,06,07,08,09,10,11,12,1.0,1.0,1.0*30
$GPRMC,120332.000,A,4750.227,N,01356.910,E,037.8,318.5,010121,000.0,W*73
$GPGGA,120333.000,4750.236,N,01356.902,E,1,12,1.0,0.0,M,0.0,M,,*65
$GPGSA,A,3,01,02,03,04,05,06,07,08,09,10,11,12,1.0,1.0,1.0*30
$GPRMC,120333.000,A,4750.236,N,01356.902,E,033.3,308.0,010121,000.0,W*7A
$GPGGA,120334.000,4750.243,N,01356.893,E,1,12,1.0,0.0,M,0.0,M,,*69
$GPGSA,A,3,01,02,03,04,05,06,07,08,09,10,11,12,1.0,1.0,1.0*30
$GPRMC,120334.000,A,4750.243,N,01356.893,E,029.7,339.5,010121,000.0,W*7E
$GPGGA,120335.000,4750.251,N,01356.890,E,1,12,1.0,0.0,M,0.0,M,,*68
$GPGSA,A,3,01,02,03,04,05,06,07,08,09,10,11,12,1.0,1.0,1.0*30
$GPRMC,120335.000,A,4750.251,N,01356.890,E,032.8,347.5,010121,000.0,W*73
$GPGGA,120336.000,4750.260,N,01356.888,E,1,12,1.0,0.0,M,0.0,M,,*60
$GPGSA,A,3,01,02,03,04,05,06,07,08,09,10,11,12,1.0,1.0,1.0*30
$GPRMC,120336.000,A,4750.260,N,01356.888,E,033.2,341.6,010121,000.0,W*75
$GPGGA,120337.000,4750.269,N,01356.885,E,1,12,1.0,0.0,M,0.0,M,,*65
$GPGSA,A,3,01,02,03,04,05,06,07,08,09,10,11,12,1.0,1.0,1.0*30
$GPRMC,120337.000,A,4750.269,N,01356.885,E,032.5,353.7,010121,000.0,W*74
$GPGGA,120338.000,4750.278,N,01356.884,E,1,12,1.0,0.0,M,0.0,M,,*6B
$GPGSA,A,3,01,02,03,04,05,06,07,08,09,10,11,12,1.0,1.0,1.0*30
$GPRMC,120338.000,A,4750.278,N,01356.884,E,032.5,353.7,010121,000.0,W*7A
$GPGGA,120339.000,4750.287,N,01356.883,E,1,12,1.0,0.0,M,0.0,M,,*6D
$GPGSA,A,3,01,02,03,04,05,06,07,08,09,10,11,12,1.0,1.0,1.0*30
$GPRMC,120339.000,A,4750.287,N,01356.883,E,032.5,353.7,010121,000.0,W*7C
$GPGGA,120340.000,4750.296,N,01356.882,E,1,12,1.0,0.0,M,0.0,M,,*62
$GPGSA,A,3,01,02,03,04,05,06,07,08,09,10,11,12,1.0,1.0,1.0*30
$GPRMC,120340.000,A,4750.296,N,01356.882,E,032.8,347.5,010121,000.0,W*79
$GPGGA,120341.000,4750.305,N,01356.880,E,1,12,1.0,0.0,M,0.0,M,,*6A
$GPGSA,A,3,01,02,03,04,05,06,07,08,09,10,11,12,1.0,1.0,1.0*30
$GPRMC,120341.000,A,4750.305,N,01356.880,E,036.7,343.4,010121,000.0,W*7F
$GPGGA,120342.000,4750.315,N,01356.877,E,1,12,1.0,0.0,M,0.0,M,,*60
$GPGSA,A,3,01,02,03,04,05,06,07,08,09,10,11,12,1.0,1.0,1.0*30
$GPRMC,120342.000,A,4750.315,N,01356.877,E,033.2,341.6,010121,000.0,W*75
$GPGGA,120343.000,4750.324,N,01356.874,E,1,12,1.0,0.0,M,0.0,M,,*60
$GPGSA,A,3,01,02,03,04,05,06,07,08,09,10,11,12,1.0,1.0,1.0*30
$GPRMC,120343.000,A,4750.324,N,01356.874,E,036.7,343.4,010121,000.0,W*75
$GPGGA,120344.000,4750.334,N,01356.871,E,1,12,1.0,0.0,M,0.0,M,,*63
$GPGSA,A,3,01,02,03,04,05,06,07,08,09,10,11,12,1.0,1.0,1.0*30
$GPRMC,120344.000,A,4750.334,N,01356.871,E,033.8,336.1,010121,000.0,W*7B
$GPGGA,120345.000,4750.343,N,01356.867,E,1,12,1.0,0.0,M,0.0,M,,*65
$GPGSA,A,3,01,02,03,04,05,06,07,08,09,10,11,12,1.0,1.0,1.0*30
$GPRMC,120345.000,A,4750.343,N,01356.867,E,036.3,348.7,010121,000.0,W*7C
$GPGGA,120346.000,4750.353,N,01356.865,E,1,12,1.0,0.0,M,0.0,M,,*65
$GPGSA,A,3,01,02,03,04,05,06,07,08,09,10,11,12,1.0,1.0,1.0*30
$GPRMC,120346.000,A,4750.353,N,01356.865,E,036.3,348.7,010121,000.0,W*7C
$GPGGA,120347.000,4750.363,N,01356.863,E,1,12,1.0,0.0,M,0.0,M,,*61
$GPGSA,A,3,01,02,03,04,05,06,07,08,09,10,11,12,1.0,1.0,1.0*30
$GPRMC,120347.000,A,4750.363,N,01356.863,E,036.7,343.4,010121,000.0,W*74
$GPGGA,120348.000,4750.373,N,01356.860,E,1,12,1.0,0.0,M,0.0,M,,*6C
$GPGSA,A,3,01,02,03,04,05,06,07,08,09,10,11,12,1.0,1.0,1.0*30
$GPRMC,120348.000,A,4750.373,N,01356.860,E,032.8,347.5,010121,000.0,W*77
$GPGGA,120349.000,4750.382,N,01356.858,E,1,12,1.0,0.0,M,0.0,M,,*68
$GPGSA,A,3,01,02,03,04,05,06,07,08,09,10,11,12,1.0,1.0,1.0*30
$GPRMC,120349.000,A,4750.382,N,01356.858,E,036.7,343.4,010121,000.0,W*7D
$GPGGA,120350.000,4750.392,N,01356.855,E,1,12,1.0,0.0,M,0.0,M,,*6C
$GPGSA,A,3,01,02,03,04,05,06,07,08,09,10,11,12,1.0,1.0,1.0*30
$GPRMC,120350.000,A,4750.392,N,01356.855,E,033.2,341.6,010121,000.0,W*79
$GPGGA,120351.000,4750.401,N,01356.852,E,1,12,1.0,0.0,M,0.0,M,,*67
$GPGSA,A,3,01,02,03,04,05,06,07,08,09,10,11,12,1.0,1.0,1.0*30
$GPRMC,120351.000,A,4750.401,N,01356.852,E,036.1,354.3,010121,000.0,W*75
$GPGGA,120352.000,4750.411,N,01356.851,E,1,12,1.0,0.0,M,0.0,M,,*66
$GPGSA,A,3,01,02,03,04,05,06,07,08,09,10,11,12,1.0,1.0,1.0*30
$GPRMC,120352.000,A,4750.411,N,01356.851,E,032.5,006.3,010121,000.0,W*70
$GPGGA,120353.000,4750.420,N,01356.852,E,1,12,1.0,0.0,M,0.0,M,,*66
$GPGSA,A,3,01,02,03,04,05,06,07,08,09,10,11,12,1.0,1.0,1.0*30
$GPRMC,120353.000,A,4750.420,N,01356.852,E,029.2,014.0,010121,000.0,W*7D
$GPGGA,120354.000,4750.428,N,01356.854,E,1,12,1.0,0.0,M,0.0,M,,*6F
$GPGSA,A,3,01,02,03,04,05,06,07,08,09,10,11,12,1.0,1.0,1.0*30
$GPRMC,120354.000,A,4750.428,N,01356.854,E,034.6,029.0,010121,000.0,W*72
$GPGGA,120355.000,4750.437,N,01356.859,E,1,12,1.0,0.0,M,0.0,M,,*6D
$GPGSA,A,3,01,02,03,04,05,06,07,08,09,10,11,12,1.0,1.0,1.0*30
$GPRMC,120355.000,A,4750.437,N,01356.859,E,031.3,031.9,010121,000.0,W*70
$GPGGA,120356.000,4750.445,N,01356.864,E,1,12,1.0,0.0,M,0.0,M,,*65
$GPGSA,A,3,01,02,03,04,05,06,07,08,09,10,11,12,1.0,1.0,1.0*30
$GPRMC,120356.000,A,4750.445,N,01356.864,E,031.3,031.9,010121,000.0,W*78
$GPGGA,120357.000,4750.453,N,01356.869,E,1,12,1.0,0.0,M,0.0,M,,*6E
$GPGSA,A,3,01,02,03,04,05,06,07,08,09,10,11,12,1.0,1.0,1.0*30
$GPRMC,120357.000,A,4750.453,N,01356.869,E,035.5,033.6,010121,000.0,W*7C
$GPGGA,120358.000,4750.462,N,01356.875,E,1,12,1.0,0.0,M,0.0,M,,*6E
$GPGSA,A,3,01,02,03,04,05,06,07,08,09,10,11,12,1.0,1.0,1.0*30
$GPRMC,120358.000,A,4750.462,N,01356.875,E,031.3,031.9,010121,000.0,W*73
$GPGGA,120359.000,4750.470,N,01356.880,E,1,12,1.0,0.0,M,0.0,M,,*66
$GPGSA,A,3,01,02,03,04,05,06,07,08,09,10,11,12,1.0,1.0,1.0*30
$GPRMC,120359.000,A,4750.470,N,01356.880,E,038.8,030.9,010121,000.0,W*78
$GPGGA,120400.000,4750.480,N,01356.886,E,1,12,1.0,0.0,M,0.0,M,,*64
$GPGSA,A,3,01,02,03,04,05,06,07,08,09,10,11,12,1.0,1.0,1.0*30
$GPRMC,120400.000,A,4750.480,N,01356.886,E,035.5,033.6,010121,000.0,W*76
$GPGGA,120401.000,4750.489,N,01356.892,E,1,12,1.0,0.0,M,0.0,M,,*69
$GPGSA,A,3,01,02,03,04,05,06,07,08,09,10,11,12,1.0,1.0,1.0*30
$GPRMC,120401.000,A,4750.489,N,01356.892,E,037.3,021.7,010121,000.0,W*7D
$GPGGA,120402.000,4750.499,N,01356.896,E,1,12,1.0,0.0,M,0.0,M,,*6F
$GPGSA,A,3,01,02,03,04,05,06,07,08,09,10,11,12,1.0,1.0,1.0*30
$GPRMC,120402.000,A,4750.499,N,01356.896,E,033.4,041.1,010121,000.0,W*78
$GPGGA,120403.000,4750.507,N,01356.903,E,1,12,1.0,0.0,M,0.0,M,,*65
$GPGSA,A,3,01,02,03,04,05,06,07,08,09,10,11,12,1.0,1.0,1.0*30
$GPRMC,120403.000,A,4750.507,N,01356.903,E,038.8,030.9,010121,000.0,W*7B
$GPGGA,120404.000,4750.517,N,01356.909,E,1,12,1.0,0.0,M,0.0,M,,*69
$GPGSA,A,3,01,02,03,04,05,06,07,08,09,10,11,12,1.0,1.0,1.0*30
$GPRMC,120404.000,A,4750.517,N,01356.909,E,035.5,033.6,010121,000.0,W*7B
$GPGGA,120405.000,4750.526,N,01356.915,E,1,12,1.0,0.0,M,0.0,M,,*67
$GPGSA,A,3,01,02,03,04,05,06,07,08,09,10,11,12,1.0,1.0,1.0*30
$GPRMC,120405.000,A,4750.526,N,01356.915,E,036.7,016.6,010121,000.0,W*73
$GPGGA,120406.000,4750.536,N,01356.918,E,1,12,1.0,0.0,M,0.0,M,,*68
$GPGSA,A,3,01,02,03,04,05,06,07,08,09,10,11,12,1.0,1.0,1.0*30
$GPRMC,120406.000,A,4750.536,N,01356.918,E,036.3,011.3,010121,000.0,W*7A
$GPGGA,120407.000,4750.546,N,01356.920,E,1,12,1.0,0.0,M,0.0,M,,*65
$GPGSA,A,3,01,02,03,04,05,06,07,08,09,10,11,12,1.0,1.0,1.0*30
$GPRMC,120407.000,A,4750.546,N,01356.920,E,033.2,018.4,010121,000.0,W*7D
$GPGGA,120408.000,4750.555,N,01356.923,E,1,12,1.0,0.0,M,0.0,M,,*6B
$GPGSA,A,3,01,02,03,04,05,06,07,08,09,10,11,12,1.0,1.0,1.0*30
$GPRMC,120408.000,A,4750.555,N,01356.923,E,036.3,011.3,010121,000.0,W*79
$GPGGA,120409.000,4750.565,N,01356.925,E,1,12,1.0,0.0,M,0.0,M,,*6F
$GPGSA,A,3,01,02,03,04,05,06,07,08,09,10,11,12,1.0,1.0,1.0*30
$GPRMC,120409.000,A,4750.565,N,01356.925,E,029.2,014.0,010121,000.0,W*74
$GPGGA,120410.000,4750.573,N,01356.927,E,1,12,1.0,0.0,M,0.0,M,,*62
$GPGSA,A,3,01,02,03,04,05,06,07,08,09,10,11,12,1.0,1.0,1.0*30
$GPRMC,120410.000,A,4750.573,N,01356.927,E,029.7,020.5,010121,000.0,W*7E
$GPGGA,120411.000,4750.581,N,01356.930,E,1,12,1.0,0.0,M,0.0,M,,*68
$GPGSA,A,3,01,02,03,04,05,06,07,08,09,10,11,12,1.0,1.0,1.0*30
$GPRMC,120411.000,A,4750.581,N,01356.930,E,027.0,029.7,010121,000.0,W*76
$GPGGA,120412.000,4750.588,N,01356.934,E,1,12,1.0,0.0,M,0.0,M,,*66
$GPGSA,A,3,01,02,03,04,05,06,07,08,09,10,11,12,1.0,1.0,1.0*30
$GPRMC,120412.000,A,4750.588,N,01356.934,E,029.1,040.5,010121,000.0,W*7A
$GPGGA,120413.000,4750.595,N,01356.940,E,1,12,1.0,0.0,M,0.0,M,,*68
$GPGSA,A,3,01,02,03,04,05,06,07,08,09,10,11,12,1.0,1.0,1.0*30
$GPRMC,120413.000,A,4750.595,N,01356.940,E,024.7,054.4,010121,000.0,W*7B
$GPGGA,120414.000,4750.600,N,01356.947,E,1,12,1.0,0.0,M,0.0,M,,*67
$GPGSA,A,3,01,02,03,04,05,06,07,08,09,10,11,12,1.0,1.0,1.0*30
$GPRMC,120414.000,A,4750.600,N,01356.947,E,030.7,056.2,010121,000.0,W*75
$GPGGA,120415.000,4750.606,N,01356.956,E,1,12,1.0,0.0,M,0.0,M,,*60
$GPGSA,A,3,01,02,03,04,05,06,07,08,09,10,11,12,1.0,1.0,1.0*30
$GPRMC,120415.000,A,4750.606,N,01356.956,E,030.1,063.3,010121,000.0,W*73
$GPGGA,120416.000,4750.611,N,01356.966,E,1,12,1.0,0.0,M,0.0,M,,*66
$GPGSA,A,3,01,02,03,04,05,06,07,08,09,10,11,12,1.0,1.0,1.0*30
$GPRMC,120416.000,A,4750.611,N,01356.966,E,030.7,056.2,010121,000.0,W*74
$GPGGA,120417.000,4750.617,N,01356.975,E,1,12,1.0,0.0,M,0.0,M,,*63
$GPGSA,A,3,01,02,03,04,05,06,07,08,09,10,11,12,1.0,1.0,1.0*30
$GPRMC,120417.000,A,4750.617,N,01356.975,E,030.7,056.2,010121,000.0,W*71
$GPGGA,120418.000,4750.623,N,01356.984,E,1,12,1.0,0.0,M,0.0,M,,*65
$GPGSA,A,3,01,02,03,04,05,06,07,08,09,10,11,12,1.0,1.0,1.0*30
$GPRMC,120418.000,A,4750.623,N,01356.984,E,031.8,048.7,010121,000.0,W*73
$GPGGA,120419.000,4750.630,N,01356.992,E,1,12,1.0,0.0,M,0.0,M,,*61
$GPGSA,A,3,01,02,03,04,05,06,07,08,09,10,11,12,1.0,1.0,1.0*30
$GPRMC,120419.000,A,4750.630,N,01356.992,E,033.4,041.1,010121,000.0,W*76
$GPGGA,120420.000,4750.638,N,01356.999,E,1,12,1.0,0.0,M,0.0,M,,*68
$GPGSA,A,3,01,02,03,04,05,06,07,08,09,10,11,12,1.0,1.0,1.0*30
$GPRMC,120420.000,A,4750.638,N,01356.999,E,033.4,041.1,010121,000.0,W*7F
$GPGGA,120421.000,4750.646,N,01357.006,E,1,12,1.0,0.0,M,0.0,M,,*6E
$GPGSA,A,3,01,02,03,04,05,06,07,08,09,10,11,12,1.0,1.0,1.0*30
$GPRMC,120421.000,A,4750.646,N,01357.006,E,029.1,040.5,010121,000.0,W*72
$GPGGA,120422.000,4750.653,N,01357.012,E,1,12,1.0,0.0,M,0.0,M,,*6C
$GPGSA,A,3,01,02,03,04,05,06,07,08,09,10,11,12,1.0,1.0,1.0*30
$GPRMC,120422.000,A,4750.653,N,01357.012,E,029.1,040.5,010121,000.0,W*70
$GPGGA,120423.000,4750.660,N,01357.018,E,1,12,1.0,0.0,M,0.0,M,,*67
$GPGSA,A,3,01,02,03,04,05,06,07,08,09,10,11,12,1.0,1.0,1.0*30
$GPRMC,120423.000,A,4750.660,N,01357.018,E,032.3,036.8,010121,000.0,W*7F
$GPGGA,120424.000,4750.668,N,01357.024,E,1,12,1.0,0.0,M,0.0,M,,*67
$GPGSA,A,3,01,02,03,04,05,06,07,08,09,10,11,12,1.0,1.0,1.0*30
$GPRMC,120424.000,A,4750.668,N,01357.024,E,030.4,026.5,010121,000.0,W*76
$GPGGA,120425.000,4750.676,N,01357.028,E,1,12,1.0,0.0,M,0.0,M,,*65
$GPGSA,A,3,01,02,03,04,05,06,07,08,09,10,11,12,1.0,1.0,1.0*30
$GPRMC,120425.000,A,4750.676,N,01357.028,E,029.2,014.0,010121,000.0,W*7E
$GPGGA,120426.000,4750.684,N,01357.030,E,1,12,1.0,0.0,M,0.0,M,,*62
$GPGSA,A,3,01,02,03,04,05,06,07,08,09,10,11,12,1.0,1.0,1.0*30
$GPRMC,120426.000,A,4750.684,N,01357.030,E,032.4,000.0,010121,000.0,W*70
$GPGGA,120427.000,4750.693,N,01357.030,E,1,12,1.0,0.0,M,0.0,M,,*65
$GPGSA,A,3,01,02,03,04,05,06,07,08,09,10,11,12,1.0,1.0,1.0*30
$GPRMC,120427.000,A,4750.693,N,01357.030,E,029.2,346.0,010121,000.0,W*7A
$GPGGA,120428.000,4750.701,N,01357.028,E,1,12,1.0,0.0,M,0.0,M,,*69
$GPGSA,A,3,01,02,03,04,05,06,07,08,09,10,11,12,1.0,1.0,1.0*30
$GPRMC,120428.000,A,4750.701,N,01357.028,E,033.2,341.6,010121,000.0,W*7C
$GPGGA,120429.000,4750.710,N,01357.025,E,1,12,1.0,0.0,M,0.0,M,,*65
$GPGSA,A,3,01,02,03,04,05,06,07,08,09,10,11,12,1.0,1.0,1.0*30
$GPRMC,120429.000,A,4750.710,N,01357.025,E,027.5,310.7,010121,000.0,W*77
$GPGGA,120430.000,4750.716,N,01357.018,E,1,12,1.0,0.0,M,0.0,M,,*65
$GPGSA,A,3,01,02,03,04,05,06,07,08,09,10,11,12,1.0,1.0,1.0*30
$GPRMC,120430.000,A,4750.716,N,01357.018,E,030.4,315.1,010121,000.0,W*73
$GPGGA,120431.000,4750.723,N,01357.011,E,1,12,1.0,0.0,M,0.0,M,,*6B
$GPGSA,A,3,01,02,03,04,05,06,07,08,09,10,11,12,1.0,1.0,1.0*30
$GPRMC,120431.000,A,4750.723,N,01357.011,E,026.0,315.1,010121,000.0,W*7E
$GPGGA,120432.000,4750.729,N,01357.005,E,1,12,1.0,0.0,M,0.0,M,,*67
$GPGSA,A,3,01,02,03,04,05,06,07,08,09,10,11,12,1.0,1.0,1.0*30
$GPRMC,120432.000,A,4750.729,N,01357.005,E,029.0,307.0,010121,000.0,W*7F
$GPGGA,120433.000,4750.735,N,01356.997,E,1,12,1.0,0.0,M,0.0,M,,*68
$GPGSA,A,3,01,02,03,04,05,06,07,08,09,10,11,12,1.0,1.0,1.0*30
$GPRMC,120433.000,A,4750.735,N,01356.997,E,030.7,303.8,010121,000.0,W*73
$GPGGA,120434.000,4750.741,N,01356.988,E,1,12,1.0,0.0,M,0.0,M,,*62
$GPGSA,A,3,01,02,03,04,05,06,07,08,09,10,11,12,1.0,1.0,1.0*30
$GPRMC,120434.000,A,4750.741,N,01356.988,E,029.0,307.0,010121,000.0,W*7A
$GPGGA,120435.000,4750.747,N,01356.980,E,1,12,1.0,0.0,M,0.0,M,,*6D
$GPGSA,A,3,01,02,03,04,05,06,07,08,09,10,11,12,1.0,1.0,1.0*30
$GPRMC,120435.000,A,4750.747,N,01356.980,E,033.3,308.0,010121,000.0,W*72
$GPGGA,120436.000,4750.754,N,01356.971,E,1,12,1.0,0.0,M,0.0,M,,*62
$GPGSA,A,3,01,02,03,04,05,06,07,08,09,10,11,12,1.0,1.0,1.0*30
$GPRMC,120436.000,A,4750.754,N,01356.971,E,031.8,311.3,010121,000.0,W*7F
$GPGGA,120437.000,4750.761,N,01356.963,E,1,12,1.0,0.0,M,0.0,M,,*66
$GPGSA,A,3,01,02,03,04,05,06,07,08,09,10,11,12,1.0,1.0,1.0*30
$GPRMC,120437.000,A,4750.761,N,01356.963,E,032.4,301.1,010121,000.0,W*77
$GPGGA,120438.000,4750.767,N,01356.953,E,1,12,1.0,0.0,M,0.0,M,,*6C
$GPGSA,A,3,01,02,03,04,05,06,07,08,09,10,11,12,1.0,1.0,1.0*30
$GPRMC,120438.000,A,4750.767,N,01356.953,E,030.2,290.0,010121,000.0,W*71
$GPGGA,120439.000,4750.771,N,01356.942,E,1,12,1.0,0.0,M,0.0,M,,*6A
$GPGSA,A,3,01,02,03,04,05,06,07,08,09,10,11,12,1.0,1.0,1.0*30
$GPRMC,120439.000,A,4750.771,N,01356.942,E,030.2,290.1,010121,000.0,W*76
$GPGGA,120440.000,4750.775,N,01356.931,E,1,12,1.0,0.0,M,0.0,M,,*64
$GPGSA,A,3,01,02,03,04,05,06,07,08,09,10,11,12,1.0,1.0,1.0*30
$GPRMC,120440.000,A,4750.775,N,01356.931,E,030.2,290.1,010121,000.0,W*78
$GPGGA,120441.000,4750.779,N,01356.920,E,1,12,1.0,0.0,M,0.0,M,,*69
$GPGSA,A,3,01,02,03,04,05,06,07,08,09,10,11,12,1.0,1.0,1.0*30
$GPRMC,120441.000,A,4750.779,N,01356.920,E,032.1,294.5,010121,000.0,W*74
$GPGGA,120442.000,4750.784,N,01356.909,E,1,12,1.0,0.0,M,0.0,M,,*63
$GPGSA,A,3,01,02,03,04,05,06,07,08,09,10,11,12,1.0,1.0,1.0*30
$GPRMC,120442.000,A,4750.784,N,01356.909,E,028.7,285.3,010121,000.0,W*75
$GPGGA,120443.000,4750.787,N,01356.898,E,1,12,1.0,0.0,M,0.0,M,,*68
$GPGSA,A,3,01,02,03,04,05,06,07,08,09,10,11,12,1.0,1.0,1.0*30
$GPRMC,120443.000,A,4750.787,N,01356.898,E,030.2,290.1,010121,000.0,W*74
$GPGGA,120444.000,4750.791,N,01356.887,E,1,12,1.0,0.0,M,0.0,M,,*66
$GPGSA,A,3,01,02,03,04,05,06,07,08,09,10,11,12,1.0,1.0,1.0*30
$GPRMC,120444.000,A,4750.791,N,01356.887,E,026.4,302.1,010121,000.0,W*71
$GPGGA,120445.000,4750.796,N,01356.879,E,1,12,1.0,0.0,M,0.0,M,,*61
$GPGSA,A,3,01,02,03,04,05,06,07,08,09,10,11,12,1.0,1.0,1.0*30
$GPRMC,120445.000,A,4750.796,N,01356.879,E,026.4,302.1,010121,000.0,W*76
$GPGGA,120446.000,4750.801,N,01356.871,E,1,12,1.0,0.0,M,0.0,M,,*6B
$GPGSA,A,3,01,02,03,04,05,06,07,08,09,10,11,12,1.0,1.0,1.0*30
$GPRMC,120446.000,A,4750.801,N,01356.871,E,029.1,319.5,010121,000.0,W*78
$GPGGA,120447.000,4750.808,N,01356.865,E,1,12,1.0,0.0,M,0.0,M,,*66
$GPGSA,A,3,01,02,03,04,05,06,07,08,09,10,11,12,1.0,1.0,1.0*30
$GPRMC,120447.000,A,4750.808,N,01356.865,E,026.2,336.9,010121,000.0,W*78
$GPGGA,120448.000,4750.815,N,01356.862,E,1,12,1.0,0.0,M,0.0,M,,*62
$GPGSA,A,3,01,02,03,04,05,06,07,08,09,10,11,12,1.0,1.0,1.0*30
$GPRMC,120448.000,A,4750.815,N,01356.862,E,026.2,336.9,010121,000.0,W*7C
$GPGGA,120449.000,4750.822,N,01356.859,E,1,12,1.0,0.0,M,0.0,M,,*6F
$GPGSA,A,3,01,02,03,04,05,06,07,08,09,10,11,12,1.0,1.0,1.0*30
$GPRMC,120449.000,A,4750.822,N,01356.859,E,025.7,344.1,010121,000.0,W*7A
$GPGGA,120450.000,4750.829,N,01356.857,E,1,12,1.0,0.0,M,0.0,M,,*62
$GPGSA,A,3,01,02,03,04,05,06,07,08,09,10,11,12,1.0,1.0,1.0*30
$GPRMC,120450.000,A,4750.829,N,01356.857,E,025.3,008.1,010121,000.0,W*78
$GPGGA,120451.000,4750.836,N,01356.858,E,1,12,1.0,0.0,M,0.0,M,,*62
$GPGSA,A,3,01,02,03,04,05,06,07,08,09,10,11,12,1.0,1.0,1.0*30
$GPRMC,120451.000,A,4750.836,N,01356.858,E,026.2,023.1,010121,000.0,W*73
$GPGGA,120452.000,4750.843,N,01356.861,E,1,12,1.0,0.0,M,0.0,M,,*69
$GPGSA,A,3,01,02,03,04,05,06,07,08,09,10,11,12,1.0,1.0,1.0*30
$GPRMC,120452.000,A,4750.843,N,01356.861,E,027.0,029.7,010121,000.0,W*77
$GPGGA,120453.000,4750.850,N,01356.865,E,1,12,1.0,0.0,M,0.0,M,,*6E
$GPGSA,A,3,01,02,03,04,05,06,07,08,09,10,11,12,1.0,1.0,1.0*30
$GPRMC,120453.000,A,4750.850,N,01356.865,E,027.5,049.3,010121,000.0,W*77
$GPGGA,120454.000,4750.856,N,01356.872,E,1,12,1.0,0.0,M,0.0,M,,*69
$GPGSA,A,3,01,02,03,04,05,06,07,08,09,10,11,12,1.0,1.0,1.0*30
$GPRMC,120454.000,A,4750.856,N,01356.872,E,026.4,057.9,010121,000.0,W*75
$GPGGA,120455.000,4750.861,N,01356.880,E,1,12,1.0,0.0,M,0.0,M,,*61
$GPGSA,A,3,01,02,03,04,05,06,07,08,09,10,11,12,1.0,1.0,1.0*30
$GPRMC,120455.000,A,4750.861,N,01356.880,E,028.2,060.9,010121,000.0,W*71
$GPGGA,120456.000,4750.866,N,01356.889,E,1,12,1.0,0.0,M,0.0,M,,*6C
$GPGSA,A,3,01,02,03,04,05,06,07,08,09,10,11,12,1.0,1.0,1.0*30
$GPRMC,120456.000,A,4750.866,N,01356.889,E,028.1,068.1,010121,000.0,W*7F
